,date,name_x,code,cases,deaths,lat,long,IDHM,IBGE_RES_POP,IBGE_POP
0,2020-03-31,Abadia dos Dourados,310010.0,0,0,-18.4831,-47.3916,0.69,6704.0,4154.0
1,2020-03-31,Abaeté,310020.0,0,0,-19.1551,-45.4444,0.698,22690.0,18464.0
2,2020-03-31,Abre Campo,310030.0,0,0,-20.2996,-42.4743,0.654,13311.0,7101.0
3,2020-03-31,Acaiaca,310040.0,0,0,-20.359,-43.1439,0.63,3920.0,2550.0
4,2020-03-31,Açucena,310050.0,0,0,-19.0671,-42.5419,0.61,10276.0,4790.0
5,2020-03-31,Água Boa,310060.0,0,0,-17.9914,-42.3806,0.58,15195.0,6987.0
6,2020-03-31,Água Comprida,310070.0,0,0,-20.0576,-48.1069,0.675,2025.0,1499.0
7,2020-03-31,Aguanil,310080.0,0,0,-20.9439,-45.3915,0.66,4054.0,2296.0
8,2020-03-31,Águas Formosas,310090.0,0,0,-17.0802,-40.9384,0.645,18479.0,14230.0
9,2020-03-31,Águas Vermelhas,310100.0,0,0,-15.7431,-41.4571,0.601,12722.0,8932.0
10,2020-03-31,Aimorés,310110.0,0,0,-19.5007,-41.0746,0.684,24959.0,19057.0
11,2020-03-31,Aiuruoca,310120.0,0,0,-21.9736,-44.6042,0.67,6162.0,3042.0
12,2020-03-31,Alagoa,310130.0,0,0,-22.171,-44.6413,0.649,2709.0,1099.0
13,2020-03-31,Albertina,310140.0,0,0,-22.2018,-46.6139,0.67,2913.0,1998.0
14,2020-03-31,Além Paraíba,310150.0,0,0,-21.8797,-42.7176,0.726,34349.0,31942.0
15,2020-03-31,Alfenas,310160.0,1,0,-21.4256,-45.9477,0.76,73774.0,68964.0
16,2020-03-31,Alfredo Vasconcelos,310163.0,0,0,-21.1535,-43.7718,0.675,6075.0,4031.0
17,2020-03-31,Almenara,310170.0,0,0,-16.1785,-40.6942,0.642,38775.0,31551.0
18,2020-03-31,Alpercata,310180.0,0,0,-18.974,-41.97,0.65,7172.0,5617.0
19,2020-03-31,Alpinópolis,310190.0,0,0,-20.8631,-46.3878,0.725,18488.0,14884.0
20,2020-03-31,Alterosa,310200.0,0,0,-21.2488,-46.1387,0.67,13717.0,9956.0
21,2020-03-31,Alto Caparaó,310205.0,0,0,-20.430999999999997,-41.8738,0.66,5297.0,3915.0
22,2020-03-31,Alto Rio Doce,310210.0,0,0,-21.0281,-43.4067,0.62,12159.0,4991.0
23,2020-03-31,Alvarenga,310220.0,0,0,-19.4174,-41.7317,0.59,4444.0,2109.0
24,2020-03-31,Alvinópolis,310230.0,0,0,-20.1098,-43.0535,0.68,15261.0,11344.0
25,2020-03-31,Alvorada de Minas,310240.0,0,0,-18.7334,-43.3638,0.57,3546.0,1441.0
26,2020-03-31,Amparo do Serra,310250.0,0,0,-20.5051,-42.8009,0.64,5053.0,2623.0
27,2020-03-31,Andradas,310260.0,0,0,-22.0695,-46.5724,0.73,37270.0,27784.0
28,2020-03-31,Cachoeira de Pajeú,310270.0,0,0,-15.9688,-41.4948,0.578,8959.0,4460.0
29,2020-03-31,Andrelândia,310280.0,0,0,-21.7411,-44.3117,0.7,12173.0,9735.0
30,2020-03-31,Angelândia,310285.0,0,0,-17.7279,-42.2641,0.597,8003.0,4036.0
31,2020-03-31,Antônio Carlos,310290.0,0,0,-21.320999999999998,-43.7451,0.68,11114.0,7825.0
32,2020-03-31,Antônio Dias,310300.0,0,0,-19.6491,-42.8732,0.645,9565.0,4662.0
33,2020-03-31,Antônio Prado de Minas,310310.0,0,0,-21.0192,-42.1109,0.684,1671.0,1003.0
34,2020-03-31,Araçaí,310320.0,0,0,-19.1955,-44.2493,0.695,2243.0,1783.0
35,2020-03-31,Aracitaba,310330.0,0,0,-21.3446,-43.3736,0.66,2058.0,1640.0
36,2020-03-31,Araçuaí,310340.0,0,0,-16.8523,-42.0637,0.66,36013.0,23201.0
37,2020-03-31,Araguari,310350.0,0,0,-18.6456,-48.1934,0.773,109801.0,101933.0
38,2020-03-31,Arantina,310360.0,0,0,-21.9102,-44.2555,0.7,2823.0,2633.0
39,2020-03-31,Araponga,310370.0,0,0,-20.6686,-42.5178,0.536,8152.0,3022.0
40,2020-03-31,Araporã,310375.0,0,0,-18.4357,-49.1847,0.708,6144.0,5848.0
41,2020-03-31,Arapuá,310380.0,0,0,-19.0268,-46.1484,0.72,2775.0,2074.0
42,2020-03-31,Araújos,310390.0,0,0,-19.9405,-45.1671,0.698,7883.0,6751.0
43,2020-03-31,Araxá,310400.0,0,0,-19.5902,-46.9438,0.772,93672.0,88054.0
44,2020-03-31,Arceburgo,310410.0,0,0,-21.359,-46.9401,0.68,9509.0,8131.0
45,2020-03-31,Arcos,310420.0,0,0,-20.2863,-45.5373,0.75,36597.0,33752.0
46,2020-03-31,Areado,310430.0,0,0,-21.3572,-46.1421,0.727,13731.0,11478.0
47,2020-03-31,Argirita,310440.0,0,0,-21.6083,-42.8292,0.643,2901.0,2192.0
48,2020-03-31,Aricanduva,310445.0,0,0,-17.8666,-42.5533,0.58,4770.0,1684.0
49,2020-03-31,Arinos,310450.0,0,0,-15.9187,-46.1043,0.66,17674.0,10806.0
50,2020-03-31,Astolfo Dutra,310460.0,0,0,-21.3184,-42.8572,0.69,13049.0,11854.0
51,2020-03-31,Ataléia,310470.0,0,0,-18.0438,-41.1149,0.588,14455.0,7176.0
52,2020-03-31,Augusto de Lima,310480.0,0,0,-18.0997,-44.2655,0.66,4960.0,2827.0
53,2020-03-31,Baependi,310490.0,0,0,-21.956999999999997,-44.8874,0.68,18307.0,13077.0
54,2020-03-31,Baldim,310500.0,0,0,-19.2832,-43.9613,0.67,7913.0,5023.0
55,2020-03-31,Bambuí,310510.0,0,0,-20.0166,-45.9754,0.741,22734.0,19119.0
56,2020-03-31,Bandeira,310520.0,0,0,-15.8783,-40.5622,0.599,4987.0,1789.0
57,2020-03-31,Bandeira do Sul,310530.0,0,0,-21.7308,-46.3833,0.69,5338.0,4824.0
58,2020-03-31,Barão de Cocais,310540.0,0,0,-19.9389,-43.4755,0.722,28442.0,25126.0
59,2020-03-31,Barão de Monte Alto,310550.0,0,0,-21.2444,-42.2372,0.649,5720.0,4516.0
60,2020-03-31,Barbacena,310560.0,0,0,-21.2214,-43.7703,0.769,126284.0,114563.0
61,2020-03-31,Barra Longa,310570.0,0,0,-20.2869,-43.0402,0.624,6143.0,2304.0
62,2020-03-31,Barroso,310590.0,0,0,-21.1907,-43.972,0.73,19599.0,18874.0
63,2020-03-31,Bela Vista de Minas,310600.0,0,0,-19.8302,-43.0922,0.674,10004.0,9377.0
64,2020-03-31,Belmiro Braga,310610.0,0,0,-21.944000000000003,-43.4084,0.66,3403.0,1316.0
65,2020-03-31,Belo Horizonte,310620.0,163,2,-19.9102,-43.9266,0.81,2375151.0,2263631.0
66,2020-03-31,Belo Oriente,310630.0,0,0,-19.2199,-42.4828,0.69,23397.0,19607.0
67,2020-03-31,Belo Vale,310640.0,0,0,-20.4077,-44.0275,0.655,7536.0,3292.0
68,2020-03-31,Berilo,310650.0,0,0,-16.9567,-42.4606,0.628,12300.0,3883.0
69,2020-03-31,Bertópolis,310660.0,0,0,-17.059,-40.58,0.594,4498.0,2721.0
70,2020-03-31,Berizal,310665.0,0,0,-15.61,-41.7432,0.604,4370.0,2475.0
71,2020-03-31,Betim,310670.0,5,0,-19.9668,-44.2008,0.75,378089.0,372678.0
72,2020-03-31,Bias Fortes,310680.0,0,0,-21.601999999999997,-43.7574,0.62,3793.0,1497.0
73,2020-03-31,Bicas,310690.0,0,0,-21.7232,-43.056000000000004,0.74,13653.0,12894.0
74,2020-03-31,Biquinhas,310700.0,0,0,-18.7754,-45.4974,0.688,2630.0,1635.0
75,2020-03-31,Boa Esperança,310710.0,1,0,-21.0927,-45.5612,0.7,38516.0,32047.0
76,2020-03-31,Bocaina de Minas,310720.0,0,0,-22.1697,-44.3972,0.645,5007.0,2396.0
77,2020-03-31,Bocaiúva,310730.0,0,0,-17.1135,-43.8104,0.7,46654.0,36443.0
78,2020-03-31,Bom Despacho,310740.0,1,0,-19.7386,-45.2622,0.75,45624.0,42068.0
79,2020-03-31,Bom Jardim de Minas,310750.0,0,0,-21.9479,-44.1885,0.67,6501.0,5540.0
80,2020-03-31,Bom Jesus da Penha,310760.0,0,0,-21.0148,-46.5174,0.735,3887.0,2794.0
81,2020-03-31,Bom Jesus do Amparo,310770.0,0,0,-19.7054,-43.4782,0.68,5491.0,2512.0
82,2020-03-31,Bom Jesus do Galho,310780.0,0,0,-19.836,-42.3165,0.623,15364.0,9975.0
83,2020-03-31,Bom Repouso,310790.0,0,0,-22.4675,-46.144,0.653,10457.0,5652.0
84,2020-03-31,Bom Sucesso,310800.0,0,0,-21.0329,-44.7537,0.69,17243.0,14116.0
85,2020-03-31,Bonfim,310810.0,0,0,-20.3302,-44.2366,0.637,6818.0,3305.0
86,2020-03-31,Bonfinópolis de Minas,310820.0,0,0,-16.567999999999998,-45.9839,0.68,5865.0,4089.0
87,2020-03-31,Bonito de Minas,310825.0,0,0,-15.3231,-44.7543,0.537,9673.0,2201.0
88,2020-03-31,Borda da Mata,310830.0,0,0,-22.2707,-46.1653,0.73,17118.0,13622.0
89,2020-03-31,Botelhos,310840.0,0,0,-21.6412,-46.391000000000005,0.7,14920.0,11255.0
90,2020-03-31,Botumirim,310850.0,0,0,-16.8657,-43.0086,0.602,6497.0,3470.0
91,2020-03-31,Brasilândia de Minas,310855.0,0,0,-16.9999,-46.0081,0.674,14226.0,12341.0
92,2020-03-31,Brasília de Minas,310860.0,0,0,-16.2104,-44.4299,0.66,31213.0,20565.0
93,2020-03-31,Brás Pires,310870.0,0,0,-20.8419,-43.2406,0.625,4637.0,2202.0
94,2020-03-31,Braúnas,310880.0,0,0,-19.0562,-42.7099,0.624,5030.0,1593.0
95,2020-03-31,Brazópolis,310890.0,0,0,-22.4743,-45.6166,0.69,14661.0,7777.0
96,2020-03-31,Brumadinho,310900.0,0,0,-20.151,-44.2007,0.747,33973.0,28129.0
97,2020-03-31,Bueno Brandão,310910.0,0,0,-22.4383,-46.3491,0.66,10892.0,5621.0
98,2020-03-31,Buenópolis,310920.0,0,0,-17.8744,-44.1775,0.669,10292.0,7683.0
99,2020-03-31,Bugre,310925.0,0,0,-19.4231,-42.2552,0.627,3992.0,1529.0
100,2020-03-31,Buritis,310930.0,0,0,-15.6218,-46.4221,0.672,22737.0,15794.0
101,2020-03-31,Buritizeiro,310940.0,0,0,-17.3656,-44.9606,0.624,26922.0,23526.0
102,2020-03-31,Cabeceira Grande,310945.0,0,0,-16.0335,-47.0862,0.648,6453.0,5283.0
103,2020-03-31,Cabo Verde,310950.0,0,0,-21.4699,-46.3919,0.674,13823.0,7582.0
104,2020-03-31,Cachoeira da Prata,310960.0,0,0,-19.521,-44.4544,0.741,3654.0,3528.0
105,2020-03-31,Cachoeira de Minas,310970.0,0,0,-22.3511,-45.7809,0.706,11034.0,7000.0
106,2020-03-31,Cachoeira Dourada,310980.0,0,0,-18.5161,-49.5039,0.726,2505.0,2219.0
107,2020-03-31,Caetanópolis,310990.0,0,0,-19.2971,-44.4189,0.706,10218.0,8351.0
108,2020-03-31,Caeté,311000.0,0,0,-19.8826,-43.6704,0.728,40750.0,35191.0
109,2020-03-31,Caiana,311010.0,0,0,-20.6956,-41.9292,0.633,4968.0,2495.0
110,2020-03-31,Cajuri,311020.0,0,0,-20.7903,-42.7925,0.617,4047.0,2093.0
111,2020-03-31,Caldas,311030.0,0,0,-21.9183,-46.3843,0.687,13633.0,7675.0
112,2020-03-31,Camacho,311040.0,0,0,-20.6294,-45.1593,0.69,3154.0,1458.0
113,2020-03-31,Camanducaia,311050.0,0,0,-22.7515,-46.1494,0.69,21080.0,15290.0
114,2020-03-31,Cambuí,311060.0,0,0,-22.6115,-46.0572,0.75,26488.0,22241.0
115,2020-03-31,Cambuquira,311070.0,0,0,-21.854,-45.2896,0.7,12602.0,10352.0
116,2020-03-31,Campanário,311080.0,0,0,-18.2427,-41.7355,0.616,3564.0,2647.0
117,2020-03-31,Campanha,311090.0,0,0,-21.836,-45.4004,0.71,15433.0,13202.0
118,2020-03-31,Campestre,311100.0,0,0,-21.7079,-46.2381,0.698,20686.0,11392.0
119,2020-03-31,Campina Verde,311110.0,0,0,-19.5382,-49.4862,0.7,19324.0,14307.0
120,2020-03-31,Campo Azul,311115.0,0,0,-16.5028,-44.8096,0.621,3684.0,1540.0
121,2020-03-31,Campo Belo,311120.0,1,0,-20.8932,-45.2699,0.711,51544.0,47527.0
122,2020-03-31,Campo do Meio,311130.0,0,0,-21.1127,-45.8273,0.68,11476.0,9130.0
123,2020-03-31,Campo Florido,311140.0,0,0,-19.7631,-48.5716,0.706,6870.0,4412.0
124,2020-03-31,Campos Altos,311150.0,1,0,-19.6914,-46.1725,0.7,14206.0,12861.0
125,2020-03-31,Campos Gerais,311160.0,0,0,-21.237,-45.7569,0.682,27600.0,19056.0
126,2020-03-31,Canaã,311170.0,0,0,-20.6869,-42.6167,0.649,4628.0,1846.0
127,2020-03-31,Canápolis,311180.0,0,0,-18.7212,-49.2035,0.722,11365.0,10029.0
128,2020-03-31,Cana Verde,311190.0,0,0,-21.0232,-45.1801,0.65,5589.0,4040.0
129,2020-03-31,Candeias,311200.0,0,0,-20.7692,-45.2765,0.68,14595.0,10112.0
130,2020-03-31,Cantagalo,311205.0,0,0,-18.5248,-42.6223,0.631,4195.0,2477.0
131,2020-03-31,Caparaó,311210.0,0,0,-20.5289,-41.9061,0.624,5209.0,2005.0
132,2020-03-31,Capela Nova,311220.0,0,0,-20.9179,-43.622,0.648,4755.0,2125.0
133,2020-03-31,Capelinha,311230.0,0,0,-17.6888,-42.5147,0.653,34803.0,24567.0
134,2020-03-31,Capetinga,311240.0,0,0,-20.6163,-47.0571,0.675,7089.0,5847.0
135,2020-03-31,Capim Branco,311250.0,0,0,-19.5471,-44.1304,0.695,8881.0,8046.0
136,2020-03-31,Capinópolis,311260.0,0,0,-18.6862,-49.5706,0.723,15290.0,14194.0
137,2020-03-31,Capitão Andrade,311265.0,0,0,-19.0748,-41.8614,0.624,4925.0,3569.0
138,2020-03-31,Capitão Enéas,311270.0,0,0,-16.3265,-43.7084,0.639,14206.0,11503.0
139,2020-03-31,Capitólio,311280.0,0,0,-20.6164,-46.0493,0.71,8183.0,5002.0
140,2020-03-31,Caputira,311290.0,0,0,-20.1703,-42.2683,0.615,9030.0,3778.0
141,2020-03-31,Caraí,311300.0,0,0,-17.1862,-41.7004,0.56,22343.0,8799.0
142,2020-03-31,Caranaíba,311310.0,0,0,-20.8707,-43.7417,0.634,3288.0,1176.0
143,2020-03-31,Carandaí,311320.0,0,0,-20.9566,-43.81100000000001,0.7,23346.0,18164.0
144,2020-03-31,Carangola,311330.0,0,0,-20.7343,-42.0313,0.695,32296.0,26105.0
145,2020-03-31,Caratinga,311340.0,0,0,-19.7868,-42.1292,0.706,85239.0,67042.0
146,2020-03-31,Carbonita,311350.0,0,0,-17.5255,-43.0137,0.638,9148.0,6710.0
147,2020-03-31,Careaçu,311360.0,0,0,-22.0424,-45.696000000000005,0.68,6298.0,4658.0
148,2020-03-31,Carlos Chagas,311370.0,0,0,-17.6973,-40.7723,0.648,20069.0,12898.0
149,2020-03-31,Carmésia,311380.0,0,0,-19.0877,-43.1382,0.65,2446.0,1303.0
150,2020-03-31,Carmo da Cachoeira,311390.0,0,0,-21.4633,-45.2201,0.655,11836.0,8903.0
151,2020-03-31,Carmo da Mata,311400.0,0,0,-20.5575,-44.8735,0.69,10927.0,8185.0
152,2020-03-31,Carmo de Minas,311410.0,0,0,-22.1204,-45.1307,0.682,13750.0,10143.0
153,2020-03-31,Carmo do Cajuru,311420.0,1,0,-20.1912,-44.7664,0.71,20012.0,17689.0
154,2020-03-31,Carmo do Paranaíba,311430.0,0,0,-18.991,-46.3167,0.705,29735.0,24601.0
155,2020-03-31,Carmo do Rio Claro,311440.0,0,0,-20.9736,-46.1149,0.733,20426.0,14245.0
156,2020-03-31,Carmópolis de Minas,311450.0,0,0,-20.5396,-44.6336,0.7,17048.0,11739.0
157,2020-03-31,Carneirinho,311455.0,0,0,-19.6987,-50.6894,0.741,9471.0,6936.0
158,2020-03-31,Carrancas,311460.0,0,0,-21.4898,-44.6446,0.725,3948.0,2581.0
159,2020-03-31,Carvalhópolis,311470.0,0,0,-21.7735,-45.8421,0.72,3341.0,2434.0
160,2020-03-31,Carvalhos,311480.0,0,0,-22.0,-44.4632,0.65,4556.0,2414.0
161,2020-03-31,Casa Grande,311490.0,0,0,-20.7925,-43.9343,0.652,2244.0,1122.0
162,2020-03-31,Cascalho Rico,311500.0,0,0,-18.5772,-47.8716,0.721,2857.0,1794.0
163,2020-03-31,Cássia,311510.0,0,0,-20.5831,-46.9201,0.7,17412.0,13945.0
164,2020-03-31,Conceição da Barra de Minas,311520.0,0,0,-21.1316,-44.4729,0.685,3954.0,2765.0
165,2020-03-31,Cataguases,311530.0,0,0,-21.3924,-42.6896,0.75,69757.0,66352.0
166,2020-03-31,Catas Altas,311535.0,0,0,-20.0734,-43.4061,0.684,4846.0,4233.0
167,2020-03-31,Catas Altas da Noruega,311540.0,0,0,-20.6901,-43.4939,0.6,3462.0,1428.0
168,2020-03-31,Catuji,311545.0,0,0,-17.3018,-41.5276,0.54,6708.0,1666.0
169,2020-03-31,Catuti,311547.0,0,0,-15.3616,-42.9627,0.621,5102.0,2974.0
170,2020-03-31,Caxambu,311550.0,0,0,-21.9753,-44.9319,0.743,21705.0,21077.0
171,2020-03-31,Cedro do Abaeté,311560.0,0,0,-19.1458,-45.711999999999996,0.68,1210.0,1033.0
172,2020-03-31,Central de Minas,311570.0,0,0,-18.7612,-41.3143,0.665,6772.0,5594.0
173,2020-03-31,Centralina,311580.0,0,0,-18.5852,-49.2014,0.68,10266.0,9295.0
174,2020-03-31,Chácara,311590.0,0,0,-21.6733,-43.215,0.664,2792.0,1903.0
175,2020-03-31,Chalé,311600.0,0,0,-20.0453,-41.6897,0.655,5645.0,2781.0
176,2020-03-31,Chapada do Norte,311610.0,0,0,-17.0881,-42.5392,0.598,15189.0,5689.0
177,2020-03-31,Chapada Gaúcha,311615.0,0,0,-15.3014,-45.6116,0.635,10805.0,5717.0
178,2020-03-31,Chiador,311620.0,0,0,-21.9996,-43.0617,0.711,2785.0,1904.0
179,2020-03-31,Cipotânea,311630.0,0,0,-20.9026,-43.3629,0.579,6547.0,2993.0
180,2020-03-31,Claraval,311640.0,0,0,-20.397000000000002,-47.2768,0.698,4542.0,2518.0
181,2020-03-31,Claro dos Poções,311650.0,0,0,-17.082,-44.2061,0.67,7775.0,5249.0
182,2020-03-31,Cláudio,311660.0,0,0,-20.4437,-44.7673,0.71,25771.0,20725.0
183,2020-03-31,Coimbra,311670.0,0,0,-20.8535,-42.8008,0.669,7054.0,5143.0
184,2020-03-31,Coluna,311680.0,0,0,-18.2311,-42.8352,0.583,9024.0,3770.0
185,2020-03-31,Comendador Gomes,311690.0,0,0,-19.6973,-49.0789,0.7,2972.0,1508.0
186,2020-03-31,Comercinho,311700.0,0,0,-16.2963,-41.7945,0.593,8298.0,3545.0
187,2020-03-31,Conceição da Aparecida,311710.0,0,0,-21.096,-46.2049,0.691,9820.0,6155.0
188,2020-03-31,Conceição das Pedras,311720.0,0,0,-22.1576,-45.4562,0.67,2749.0,1509.0
189,2020-03-31,Conceição das Alagoas,311730.0,0,0,-19.9172,-48.3839,0.71,23043.0,20619.0
190,2020-03-31,Conceição de Ipanema,311740.0,0,0,-19.9326,-41.6908,0.68,4456.0,1462.0
191,2020-03-31,Conceição do Mato Dentro,311750.0,0,0,-19.0344,-43.4221,0.634,17908.0,12213.0
192,2020-03-31,Conceição do Pará,311760.0,0,0,-19.7456,-44.8945,0.7,5158.0,2005.0
193,2020-03-31,Conceição do Rio Verde,311770.0,0,0,-21.8778,-45.086999999999996,0.665,12949.0,11353.0
194,2020-03-31,Conceição dos Ouros,311780.0,0,0,-22.4078,-45.7996,0.703,10388.0,8076.0
195,2020-03-31,Cônego Marinho,311783.0,0,0,-15.2892,-44.4181,0.621,7101.0,1908.0
196,2020-03-31,Confins,311787.0,0,0,-19.6282,-43.9931,0.747,5936.0,5396.0
197,2020-03-31,Congonhal,311790.0,0,0,-22.1488,-46.043,0.71,10468.0,7693.0
198,2020-03-31,Congonhas,311800.0,0,0,-20.4958,-43.851000000000006,0.753,48519.0,47032.0
199,2020-03-31,Congonhas do Norte,311810.0,0,0,-18.8021,-43.6767,0.568,4943.0,2582.0
200,2020-03-31,Conquista,311820.0,0,0,-19.9312,-47.5492,0.73,6526.0,5621.0
201,2020-03-31,Conselheiro Lafaiete,311830.0,0,0,-20.6634,-43.7846,0.76,116512.0,110658.0
202,2020-03-31,Conselheiro Pena,311840.0,0,0,-19.1789,-41.4736,0.662,22242.0,17446.0
203,2020-03-31,Consolação,311850.0,0,0,-22.5493,-45.9255,0.67,1727.0,949.0
204,2020-03-31,Contagem,311860.0,5,0,-19.9321,-44.0539,0.76,603442.0,595593.0
205,2020-03-31,Coqueiral,311870.0,0,0,-21.1858,-45.4366,0.69,9289.0,6556.0
206,2020-03-31,Coração de Jesus,311880.0,0,0,-16.6841,-44.3635,0.642,26033.0,14668.0
207,2020-03-31,Cordisburgo,311890.0,0,0,-19.1224,-44.3224,0.66,8667.0,5947.0
208,2020-03-31,Cordislândia,311900.0,0,0,-21.7891,-45.6999,0.66,3435.0,2728.0
209,2020-03-31,Corinto,311910.0,0,0,-18.369,-44.4542,0.68,23914.0,21041.0
210,2020-03-31,Coroaci,311920.0,0,0,-18.6156,-42.2791,0.626,10270.0,5168.0
211,2020-03-31,Coromandel,311930.0,0,0,-18.4734,-47.1933,0.708,27547.0,21503.0
212,2020-03-31,Coronel Fabriciano,311940.0,1,0,-19.5179,-42.6276,0.755,103694.0,99429.0
213,2020-03-31,Coronel Murta,311950.0,0,0,-16.6148,-42.184,0.627,9117.0,6681.0
214,2020-03-31,Coronel Pacheco,311960.0,0,0,-21.5898,-43.256,0.669,2983.0,2141.0
215,2020-03-31,Coronel Xavier Chaves,311970.0,0,0,-21.0277,-44.2206,0.677,3301.0,1800.0
216,2020-03-31,Córrego Danta,311980.0,0,0,-19.8198,-45.9032,0.69,3391.0,2080.0
217,2020-03-31,Córrego do Bom Jesus,311990.0,0,0,-22.6269,-46.0241,0.69,3730.0,2044.0
218,2020-03-31,Córrego Fundo,311995.0,0,0,-20.4474,-45.5617,0.68,5790.0,4401.0
219,2020-03-31,Córrego Novo,312000.0,0,0,-19.8361,-42.3988,0.632,3127.0,2034.0
220,2020-03-31,Couto de Magalhães de Minas,312010.0,0,0,-18.0727,-43.4648,0.659,4204.0,3819.0
221,2020-03-31,Crisólita,312015.0,0,0,-17.2381,-40.9184,0.585,6047.0,3485.0
222,2020-03-31,Cristais,312020.0,0,0,-20.8733,-45.5167,0.69,11286.0,8793.0
223,2020-03-31,Cristália,312030.0,0,0,-16.715999999999998,-42.8571,0.583,5760.0,3038.0
224,2020-03-31,Cristiano Otoni,312040.0,0,0,-20.8324,-43.8166,0.695,5007.0,4152.0
225,2020-03-31,Cristina,312050.0,0,0,-22.208000000000002,-45.2673,0.67,10210.0,5899.0
226,2020-03-31,Crucilândia,312060.0,0,0,-20.3923,-44.3334,0.65,4757.0,2914.0
227,2020-03-31,Cruzeiro da Fortaleza,312070.0,0,0,-18.944000000000003,-46.6669,0.696,3934.0,3342.0
228,2020-03-31,Cruzília,312080.0,0,0,-21.84,-44.8067,0.695,14591.0,13235.0
229,2020-03-31,Cuparaque,312083.0,0,0,-18.9648,-41.0986,0.627,4680.0,3877.0
230,2020-03-31,Curral de Dentro,312087.0,0,0,-15.9327,-41.8557,0.585,6913.0,5820.0
231,2020-03-31,Curvelo,312090.0,0,0,-18.7527,-44.4303,0.713,74219.0,66960.0
232,2020-03-31,Datas,312100.0,0,0,-18.4478,-43.6591,0.616,5211.0,3087.0
233,2020-03-31,Delfim Moreira,312110.0,0,0,-22.5036,-45.2792,0.669,7971.0,2998.0
234,2020-03-31,Delfinópolis,312120.0,0,0,-20.3468,-46.8456,0.74,6830.0,4810.0
235,2020-03-31,Delta,312125.0,0,0,-19.9721,-47.7841,0.639,8089.0,7329.0
236,2020-03-31,Descoberto,312130.0,0,0,-21.46,-42.9618,0.68,4768.0,4060.0
237,2020-03-31,Desterro de Entre Rios,312140.0,0,0,-20.665,-44.3334,0.639,7002.0,3568.0
238,2020-03-31,Desterro do Melo,312150.0,0,0,-21.143,-43.5178,0.631,3015.0,1375.0
239,2020-03-31,Diamantina,312160.0,0,0,-18.2413,-43.6031,0.716,45880.0,40491.0
240,2020-03-31,Diogo de Vasconcelos,312170.0,0,0,-20.4879,-43.1953,0.601,3848.0,1096.0
241,2020-03-31,Dionísio,312180.0,0,0,-19.8433,-42.7701,0.7,8739.0,7122.0
242,2020-03-31,Divinésia,312190.0,0,0,-20.9917,-43.0003,0.657,3293.0,2175.0
243,2020-03-31,Divino,312200.0,0,0,-20.6134,-42.1438,0.605,19133.0,10652.0
244,2020-03-31,Divino das Laranjeiras,312210.0,0,0,-18.7755,-41.4781,0.66,4937.0,4106.0
245,2020-03-31,Divinolândia de Minas,312220.0,0,0,-18.8004,-42.6103,0.623,7024.0,5751.0
246,2020-03-31,Divinópolis,312230.0,9,0,-20.1446,-44.8912,0.764,213016.0,190832.0
247,2020-03-31,Divisa Alegre,312235.0,0,0,-15.7221,-41.3463,0.608,5884.0,5686.0
248,2020-03-31,Divisa Nova,312240.0,0,0,-21.5092,-46.1904,0.67,5763.0,4645.0
249,2020-03-31,Divisópolis,312245.0,0,0,-15.7254,-40.9997,0.609,8974.0,6390.0
250,2020-03-31,Dom Bosco,312247.0,0,0,-16.652,-46.2597,0.67,3814.0,2050.0
251,2020-03-31,Dom Cavati,312250.0,0,0,-19.3735,-42.1121,0.688,5209.0,4595.0
252,2020-03-31,Dom Joaquim,312260.0,0,0,-18.961,-43.2544,0.622,4535.0,2919.0
253,2020-03-31,Dom Silvério,312270.0,0,0,-20.1627,-42.9627,0.71,5196.0,4023.0
254,2020-03-31,Dom Viçoso,312280.0,0,0,-22.2511,-45.1643,0.687,2994.0,997.0
255,2020-03-31,Dona Euzébia,312290.0,0,0,,,,,
256,2020-03-31,Dores de Campos,312300.0,0,0,-21.1139,-44.0207,0.69,9299.0,8396.0
257,2020-03-31,Dores de Guanhães,312310.0,0,0,-19.0516,-42.9254,0.636,5223.0,1622.0
258,2020-03-31,Dores do Indaiá,312320.0,0,0,-19.4628,-45.5927,0.72,13778.0,12516.0
259,2020-03-31,Dores do Turvo,312330.0,0,0,-20.9785,-43.1834,0.629,4462.0,2022.0
260,2020-03-31,Doresópolis,312340.0,0,0,-20.2868,-45.9007,0.69,1440.0,1131.0
261,2020-03-31,Douradoquara,312350.0,0,0,-18.4338,-47.5993,0.706,1841.0,1232.0
262,2020-03-31,Durandé,312352.0,0,0,-20.2058,-41.7977,0.645,7423.0,3546.0
263,2020-03-31,Elói Mendes,312360.0,0,0,-21.6088,-45.5691,0.685,25220.0,20303.0
264,2020-03-31,Engenheiro Caldas,312370.0,0,0,-19.2065,-42.0503,0.644,10280.0,8325.0
265,2020-03-31,Engenheiro Navarro,312380.0,0,0,-17.2831,-43.946999999999996,0.655,7122.0,4724.0
266,2020-03-31,Entre Folhas,312385.0,0,0,-19.6218,-42.2306,0.634,5175.0,3885.0
267,2020-03-31,Entre Rios de Minas,312390.0,0,0,-20.6706,-44.0654,0.672,14242.0,9797.0
268,2020-03-31,Ervália,312400.0,0,0,-20.8403,-42.6544,0.625,17946.0,9422.0
269,2020-03-31,Esmeraldas,312410.0,0,0,-19.764,-44.3065,0.67,60271.0,55040.0
270,2020-03-31,Espera Feliz,312420.0,0,0,-20.6508,-41.9119,0.66,22856.0,14080.0
271,2020-03-31,Espinosa,312430.0,0,0,-14.9249,-42.809,0.627,31113.0,17597.0
272,2020-03-31,Espírito Santo do Dourado,312440.0,0,0,-22.0454,-45.9548,0.685,4429.0,1682.0
273,2020-03-31,Estiva,312450.0,0,0,-22.4577,-46.0191,0.691,10845.0,4850.0
274,2020-03-31,Estrela Dalva,312460.0,0,0,-21.7412,-42.4574,0.71,2470.0,1780.0
275,2020-03-31,Estrela do Indaiá,312470.0,0,0,-19.5169,-45.7859,0.68,3516.0,2767.0
276,2020-03-31,Estrela do Sul,312480.0,0,0,-18.7399,-47.6956,0.696,7446.0,6009.0
277,2020-03-31,Eugenópolis,312490.0,0,0,-21.1002,-42.1878,0.675,10540.0,7358.0
278,2020-03-31,Ewbank da Câmara,312500.0,0,0,-21.5498,-43.5068,0.68,3753.0,3433.0
279,2020-03-31,Extrema,312510.0,1,0,-22.854,-46.3178,0.732,28599.0,25951.0
280,2020-03-31,Fama,312520.0,0,0,-21.4089,-45.8286,0.72,2350.0,1512.0
281,2020-03-31,Faria Lemos,312530.0,0,0,-20.8097,-42.0213,0.687,3376.0,2324.0
282,2020-03-31,Felício dos Santos,312540.0,0,0,-18.0755,-43.2422,0.606,5142.0,2221.0
283,2020-03-31,São Gonçalo do Rio Preto,312550.0,0,0,-18.0025,-43.3854,0.64,3056.0,1939.0
284,2020-03-31,Felisburgo,312560.0,0,0,-16.6348,-40.7605,0.583,6877.0,5034.0
285,2020-03-31,Felixlândia,312570.0,0,0,-18.7507,-44.9004,0.648,14121.0,10850.0
286,2020-03-31,Fernandes Tourinho,312580.0,0,0,-19.1541,-42.0803,0.65,3030.0,2008.0
287,2020-03-31,Ferros,312590.0,0,0,-19.2343,-43.0192,0.603,10837.0,5028.0
288,2020-03-31,Fervedouro,312595.0,0,0,-20.726,-42.278999999999996,0.58,10349.0,4745.0
289,2020-03-31,Florestal,312600.0,0,0,-19.887999999999998,-44.4318,0.72,6600.0,5479.0
290,2020-03-31,Formiga,312610.0,0,0,-20.4618,-45.4268,0.755,65128.0,58961.0
291,2020-03-31,Formoso,312620.0,0,0,-14.9446,-46.2371,0.64,8177.0,5162.0
292,2020-03-31,Fortaleza de Minas,312630.0,0,0,-20.8508,-46.711999999999996,0.67,4098.0,2945.0
293,2020-03-31,Fortuna de Minas,312640.0,0,0,-19.5578,-44.4472,0.696,2705.0,1859.0
294,2020-03-31,Francisco Badaró,312650.0,0,0,-16.9883,-42.3568,0.622,10248.0,3170.0
295,2020-03-31,Francisco Dumont,312660.0,0,0,-17.3107,-44.2317,0.625,4863.0,3186.0
296,2020-03-31,Francisco Sá,312670.0,0,0,-16.4827,-43.4896,0.654,24912.0,14810.0
297,2020-03-31,Franciscópolis,312675.0,0,0,-17.9578,-42.0094,0.603,5800.0,2396.0
298,2020-03-31,Frei Gaspar,312680.0,0,0,-18.0709,-41.4325,0.59,5879.0,1916.0
299,2020-03-31,Frei Inocêncio,312690.0,0,0,-18.5556,-41.9121,0.648,8920.0,6728.0
300,2020-03-31,Frei Lagonegro,312695.0,0,0,-18.1751,-42.7617,0.54,3329.0,616.0
301,2020-03-31,Fronteira,312700.0,0,0,-20.2748,-49.1984,0.684,14041.0,13130.0
302,2020-03-31,Fronteira dos Vales,312705.0,0,0,-16.8898,-40.923,0.59,4687.0,3021.0
303,2020-03-31,Fruta de Leite,312707.0,0,0,-16.1225,-42.5288,0.544,5940.0,2036.0
304,2020-03-31,Frutal,312710.0,0,0,-20.0259,-48.9355,0.73,53468.0,45843.0
305,2020-03-31,Funilândia,312720.0,0,0,-19.3661,-44.06100000000001,0.655,3855.0,2029.0
306,2020-03-31,Galiléia,312730.0,0,0,-19.0005,-41.5387,0.654,6951.0,5657.0
307,2020-03-31,Gameleiras,312733.0,0,0,-15.0829,-43.125,0.65,5139.0,1406.0
308,2020-03-31,Glaucilândia,312735.0,0,0,-16.8481,-43.692,0.679,2962.0,1048.0
309,2020-03-31,Goiabeira,312737.0,0,0,-18.9807,-41.2235,0.647,3053.0,2464.0
310,2020-03-31,Goianá,312738.0,0,0,-21.535999999999998,-43.1957,0.716,3659.0,2969.0
311,2020-03-31,Gonçalves,312740.0,0,0,-22.6545,-45.8556,0.68,4220.0,1144.0
312,2020-03-31,Gonzaga,312750.0,0,0,-18.8196,-42.4769,0.606,5921.0,3221.0
313,2020-03-31,Gouveia,312760.0,0,0,-18.4519,-43.7423,0.68,11681.0,8193.0
314,2020-03-31,Governador Valadares,312770.0,2,0,-18.8545,-41.9555,0.727,263689.0,248674.0
315,2020-03-31,Grão Mogol,312780.0,0,0,-16.5662,-42.8923,0.604,15024.0,5188.0
316,2020-03-31,Grupiara,312790.0,0,0,-18.5003,-47.7318,0.731,1373.0,1170.0
317,2020-03-31,Guanhães,312800.0,0,0,-18.7713,-42.9312,0.69,31262.0,25318.0
318,2020-03-31,Guapé,312810.0,0,0,-20.7631,-45.9152,0.679,13872.0,7111.0
319,2020-03-31,Guaraciaba,312820.0,0,0,-20.5716,-43.0094,0.623,10223.0,3173.0
320,2020-03-31,Guaraciama,312825.0,0,0,-17.0142,-43.6675,0.677,4718.0,3024.0
321,2020-03-31,Guaranésia,312830.0,0,0,-21.3009,-46.7964,0.701,18714.0,16723.0
322,2020-03-31,Guarani,312840.0,0,0,-21.3563,-43.0328,0.677,8678.0,6610.0
323,2020-03-31,Guarará,312850.0,0,0,-21.7304,-43.0334,0.652,3929.0,3486.0
324,2020-03-31,Guarda-Mor,312860.0,0,0,-17.7673,-47.0998,0.69,6565.0,3681.0
325,2020-03-31,Guaxupé,312870.0,0,0,-21.305,-46.7081,0.75,49430.0,46069.0
326,2020-03-31,Guidoval,312880.0,0,0,-21.155,-42.7887,0.68,7206.0,5191.0
327,2020-03-31,Guimarânia,312890.0,1,0,-18.8425,-46.7901,0.693,7265.0,5914.0
328,2020-03-31,Guiricema,312900.0,0,0,-21.0098,-42.7207,0.674,8707.0,4207.0
329,2020-03-31,Gurinhatã,312910.0,0,0,-19.2143,-49.7876,0.68,6137.0,2672.0
330,2020-03-31,Heliodora,312920.0,0,0,-22.0644,-45.5453,0.657,6121.0,4413.0
331,2020-03-31,Iapu,312930.0,0,0,-19.4387,-42.2147,0.654,10315.0,7145.0
332,2020-03-31,Ibertioga,312940.0,0,0,-21.433000000000003,-43.9639,0.657,5036.0,3426.0
333,2020-03-31,Ibiá,312950.0,0,0,-19.4749,-46.5474,0.718,23218.0,19484.0
334,2020-03-31,Ibiaí,312960.0,0,0,-16.8591,-44.9046,0.614,7839.0,5980.0
335,2020-03-31,Ibiracatu,312965.0,0,0,-15.6605,-44.1667,0.591,6155.0,3116.0
336,2020-03-31,Ibiraci,312970.0,0,0,-20.4611,-47.1222,0.706,12176.0,8137.0
337,2020-03-31,Ibirité,312980.0,0,0,-20.0252,-44.0569,0.7,158954.0,158253.0
338,2020-03-31,Ibitiúra de Minas,312990.0,0,0,-22.0604,-46.4368,0.674,3382.0,2347.0
339,2020-03-31,Ibituruna,313000.0,0,0,-21.1541,-44.7479,0.675,2866.0,2465.0
340,2020-03-31,Icaraí de Minas,313005.0,0,0,-16.214000000000002,-44.9034,0.624,10746.0,2973.0
341,2020-03-31,Igarapé,313010.0,0,0,-20.0707,-44.2994,0.698,34851.0,32518.0
342,2020-03-31,Igaratinga,313020.0,0,0,-19.9476,-44.7063,0.65,9264.0,7628.0
343,2020-03-31,Iguatama,313030.0,0,0,-20.1776,-45.7111,0.71,8029.0,6668.0
344,2020-03-31,Ijaci,313040.0,0,0,-21.1738,-44.9233,0.71,5859.0,5151.0
345,2020-03-31,Ilicínea,313050.0,0,0,-20.9402,-45.8308,0.68,11488.0,8991.0
346,2020-03-31,Imbé de Minas,313055.0,0,0,-19.6017,-41.9695,0.55,6424.0,2037.0
347,2020-03-31,Inconfidentes,313060.0,0,0,-22.3136,-46.3264,0.69,6908.0,3598.0
348,2020-03-31,Indaiabira,313065.0,0,0,-15.4911,-42.2005,0.61,7330.0,2742.0
349,2020-03-31,Indianópolis,313070.0,0,0,-19.0341,-47.9155,0.674,6190.0,3635.0
350,2020-03-31,Ingaí,313080.0,0,0,-21.4024,-44.9152,0.7,2629.0,1620.0
351,2020-03-31,Inhapim,313090.0,0,0,-19.5476,-42.1147,0.66,24294.0,13886.0
352,2020-03-31,Inhaúma,313100.0,0,0,-19.4898,-44.3934,0.7,5760.0,4190.0
353,2020-03-31,Inimutaba,313110.0,0,0,-18.7271,-44.3584,0.664,6724.0,4737.0
354,2020-03-31,Ipaba,313115.0,0,0,-19.4158,-42.4139,0.665,16708.0,14614.0
355,2020-03-31,Ipanema,313120.0,0,0,-19.7992,-41.7164,0.693,18170.0,14133.0
356,2020-03-31,Ipatinga,313130.0,1,0,-19.4703,-42.5476,0.77,239468.0,235407.0
357,2020-03-31,Ipiaçu,313140.0,0,0,-18.6927,-49.9436,0.696,4107.0,3731.0
358,2020-03-31,Ipuiúna,313150.0,0,0,-22.1013,-46.1915,0.69,9521.0,7382.0
359,2020-03-31,Iraí de Minas,313160.0,0,0,-18.9819,-47.461000000000006,0.695,6467.0,5152.0
360,2020-03-31,Itabira,313170.0,0,0,-19.6239,-43.2312,0.76,109783.0,101931.0
361,2020-03-31,Itabirinha,313180.0,0,0,-18.5712,-41.233999999999995,0.653,10692.0,8320.0
362,2020-03-31,Itabirito,313190.0,0,0,-20.2501,-43.8038,0.73,45449.0,43396.0
363,2020-03-31,Itacambira,313200.0,0,0,-17.0625,-43.3069,0.628,4988.0,1004.0
364,2020-03-31,Itacarambi,313210.0,0,0,-15.089,-44.095,0.64,17720.0,13771.0
365,2020-03-31,Itaguara,313220.0,0,0,-20.3947,-44.4875,0.691,12372.0,9460.0
366,2020-03-31,Itaipé,313230.0,0,0,-17.4014,-41.6697,0.552,11798.0,4912.0
367,2020-03-31,Itajubá,313240.0,0,0,-22.4225,-45.4598,0.787,90658.0,80074.0
368,2020-03-31,Itamarandiba,313250.0,0,0,-17.8552,-42.8561,0.65,32175.0,21814.0
369,2020-03-31,Itamarati de Minas,313260.0,0,0,-21.4179,-42.813,0.688,4079.0,3208.0
370,2020-03-31,Itambacuri,313270.0,0,0,-18.035,-41.683,0.634,22809.0,14445.0
371,2020-03-31,Itambé do Mato Dentro,313280.0,0,0,-19.4158,-43.3182,0.634,2283.0,907.0
372,2020-03-31,Itamogi,313290.0,0,0,-21.0758,-47.04600000000001,0.674,10349.0,7695.0
373,2020-03-31,Itamonte,313300.0,0,0,-22.2859,-44.868,0.705,14003.0,9550.0
374,2020-03-31,Itanhandu,313310.0,0,0,-22.2942,-44.9382,0.74,14175.0,12009.0
375,2020-03-31,Itanhomi,313320.0,0,0,-19.1736,-41.863,0.65,11856.0,8533.0
376,2020-03-31,Itaobim,313330.0,0,0,-16.5571,-41.5017,0.629,21001.0,15673.0
377,2020-03-31,Itapagipe,313340.0,0,0,-19.9062,-49.3781,0.723,13656.0,9369.0
378,2020-03-31,Itapecerica,313350.0,0,0,-20.4704,-45.126999999999995,0.713,21377.0,16418.0
379,2020-03-31,Itapeva,313360.0,0,0,-22.7665,-46.2241,0.72,8664.0,4511.0
380,2020-03-31,Itatiaiuçu,313370.0,0,0,-20.1983,-44.4211,0.677,9928.0,6218.0
381,2020-03-31,Itaú de Minas,313375.0,0,0,-20.7375,-46.7525,0.78,14945.0,14527.0
382,2020-03-31,Itaúna,313380.0,0,0,-20.0818,-44.5801,0.758,85463.0,79872.0
383,2020-03-31,Itaverava,313390.0,0,0,-20.6769,-43.6141,0.627,5799.0,2565.0
384,2020-03-31,Itinga,313400.0,0,0,-16.61,-41.7672,0.6,14407.0,6546.0
385,2020-03-31,Itueta,313410.0,0,0,-19.3999,-41.1746,0.635,5830.0,3289.0
386,2020-03-31,Ituiutaba,313420.0,0,0,-18.9772,-49.4639,0.74,97171.0,92119.0
387,2020-03-31,Itumirim,313430.0,0,0,-21.3171,-44.8724,0.726,6139.0,4696.0
388,2020-03-31,Iturama,313440.0,0,0,-19.7276,-50.1966,0.747,34456.0,32224.0
389,2020-03-31,Itutinga,313450.0,0,0,-21.3,-44.6567,0.727,3913.0,2755.0
390,2020-03-31,Jaboticatubas,313460.0,0,0,-19.5119,-43.7373,0.68,17134.0,10722.0
391,2020-03-31,Jacinto,313470.0,0,0,-16.1428,-40.295,0.62,12134.0,9115.0
392,2020-03-31,Jacuí,313480.0,0,0,-21.0137,-46.7359,0.67,7502.0,4529.0
393,2020-03-31,Jacutinga,313490.0,0,0,-22.285999999999998,-46.6166,0.715,22772.0,15560.0
394,2020-03-31,Jaguaraçu,313500.0,0,0,-19.647000000000002,-42.7498,0.679,2990.0,2137.0
395,2020-03-31,Jaíba,313505.0,0,0,-15.3432,-43.6688,0.638,33587.0,17546.0
396,2020-03-31,Jampruca,313507.0,0,0,-18.461,-41.809,0.609,5067.0,3256.0
397,2020-03-31,Janaúba,313510.0,0,0,-15.8022,-43.3132,0.696,66803.0,60294.0
398,2020-03-31,Januária,313520.0,0,0,-15.4802,-44.3639,0.66,65463.0,41121.0
399,2020-03-31,Japaraíba,313530.0,0,0,-20.1442,-45.5015,0.721,3939.0,2533.0
400,2020-03-31,Japonvar,313535.0,0,0,-15.9891,-44.2758,0.608,8298.0,3042.0
401,2020-03-31,Jeceaba,313540.0,0,0,-20.5339,-43.9894,0.66,5395.0,2985.0
402,2020-03-31,Jenipapo de Minas,313545.0,0,0,-17.0831,-42.2589,0.624,7116.0,2863.0
403,2020-03-31,Jequeri,313550.0,0,0,-20.4542,-42.6651,0.601,12848.0,7250.0
404,2020-03-31,Jequitaí,313560.0,0,0,-17.229,-44.4376,0.643,8005.0,5427.0
405,2020-03-31,Jequitibá,313570.0,0,0,-19.2345,-44.0304,0.69,5156.0,1956.0
406,2020-03-31,Jequitinhonha,313580.0,0,0,-16.4375,-41.0117,0.615,24131.0,16853.0
407,2020-03-31,Jesuânia,313590.0,0,0,-21.9887,-45.2911,0.66,4768.0,3081.0
408,2020-03-31,Joaíma,313600.0,0,0,-16.6522,-41.0229,0.59,14941.0,10241.0
409,2020-03-31,Joanésia,313610.0,0,0,-19.1729,-42.6775,0.626,5425.0,2060.0
410,2020-03-31,João Monlevade,313620.0,0,0,-19.8126,-43.1735,0.758,73610.0,73080.0
411,2020-03-31,João Pinheiro,313630.0,0,0,-17.7398,-46.1715,0.7,45260.0,36598.0
412,2020-03-31,Joaquim Felício,313640.0,0,0,-17.758,-44.1643,0.637,4305.0,2506.0
413,2020-03-31,Jordânia,313650.0,0,0,-15.9009,-40.1841,0.628,10324.0,7171.0
414,2020-03-31,José Gonçalves de Minas,313652.0,0,0,-16.9053,-42.6014,0.632,4553.0,1135.0
415,2020-03-31,José Raydan,313655.0,0,0,-18.2195,-42.4946,0.617,4376.0,1560.0
416,2020-03-31,Josenópolis,313657.0,0,0,-16.5417,-42.5151,0.564,4566.0,2443.0
417,2020-03-31,Nova União,313660.0,0,0,-19.6876,-43.583,0.662,5555.0,2984.0
418,2020-03-31,Juatuba,313665.0,0,0,-19.9448,-44.3451,0.72,22202.0,21719.0
419,2020-03-31,Juiz de Fora,313670.0,23,0,-21.7595,-43.3398,0.778,516247.0,499216.0
420,2020-03-31,Juramento,313680.0,0,0,-16.8473,-43.5865,0.669,4113.0,2270.0
421,2020-03-31,Juruaia,313690.0,0,0,-21.2493,-46.5735,0.723,9238.0,4487.0
422,2020-03-31,Juvenília,313695.0,0,0,-14.2662,-44.1597,0.59,5708.0,4384.0
423,2020-03-31,Ladainha,313700.0,0,0,-17.6279,-41.7488,0.541,16994.0,4268.0
424,2020-03-31,Lagamar,313710.0,0,0,-18.1759,-46.8063,0.718,7600.0,5098.0
425,2020-03-31,Lagoa da Prata,313720.0,2,0,-20.0237,-45.5401,0.732,45984.0,44536.0
426,2020-03-31,Lagoa dos Patos,313730.0,0,0,-16.977999999999998,-44.5754,0.634,4225.0,3073.0
427,2020-03-31,Lagoa Dourada,313740.0,0,0,-20.9139,-44.0797,0.68,12256.0,6869.0
428,2020-03-31,Lagoa Formosa,313750.0,0,0,-18.7715,-46.4012,0.703,17161.0,12898.0
429,2020-03-31,Lagoa Grande,313753.0,0,0,-17.8323,-46.5165,0.679,8631.0,6377.0
430,2020-03-31,Lagoa Santa,313760.0,0,0,-19.6397,-43.8932,0.777,52520.0,49199.0
431,2020-03-31,Lajinha,313770.0,0,0,-20.1539,-41.6228,0.66,19609.0,12187.0
432,2020-03-31,Lambari,313780.0,0,0,-21.9671,-45.3498,0.711,19554.0,13973.0
433,2020-03-31,Lamim,313790.0,0,0,-20.79,-43.4706,0.655,3452.0,1511.0
434,2020-03-31,Laranjal,313800.0,0,0,-21.3715,-42.4732,0.71,6465.0,4738.0
435,2020-03-31,Lassance,313810.0,0,0,-17.887,-44.5735,0.629,6484.0,3872.0
436,2020-03-31,Lavras,313820.0,0,0,-21.248,-45.0009,0.782,92200.0,87422.0
437,2020-03-31,Leandro Ferreira,313830.0,0,0,-19.7193,-45.0279,0.71,3205.0,2117.0
438,2020-03-31,Leme do Prado,313835.0,0,0,-17.0793,-42.6936,0.67,4804.0,1761.0
439,2020-03-31,Leopoldina,313840.0,0,0,-21.5296,-42.6421,0.726,51130.0,45516.0
440,2020-03-31,Liberdade,313850.0,0,0,-22.0275,-44.3208,0.672,5346.0,3848.0
441,2020-03-31,Lima Duarte,313860.0,0,0,-21.8386,-43.7934,0.71,16149.0,12239.0
442,2020-03-31,Limeira do Oeste,313862.0,0,0,-19.5512,-50.5815,0.71,6890.0,4943.0
443,2020-03-31,Lontra,313865.0,0,0,-15.9013,-44.306000000000004,0.65,8397.0,5614.0
444,2020-03-31,Luisburgo,313867.0,0,0,-20.4468,-42.0976,0.608,6234.0,1836.0
445,2020-03-31,Luislândia,313868.0,0,0,-16.1095,-44.5886,0.614,6400.0,2989.0
446,2020-03-31,Luminárias,313870.0,0,0,-21.5145,-44.9034,0.68,5422.0,4137.0
447,2020-03-31,Luz,313880.0,0,0,-19.7911,-45.6794,0.72,17486.0,15593.0
448,2020-03-31,Machacalis,313890.0,0,0,-17.0723,-40.7245,0.64,6976.0,5735.0
449,2020-03-31,Machado,313900.0,0,0,-21.6778,-45.9219,0.715,38688.0,31371.0
450,2020-03-31,Madre de Deus de Minas,313910.0,0,0,-21.483,-44.3287,0.7,4904.0,3714.0
451,2020-03-31,Malacacheta,313920.0,0,0,-17.8456,-42.0769,0.618,18776.0,11701.0
452,2020-03-31,Mamonas,313925.0,0,0,-15.0479,-42.9469,0.618,6321.0,2808.0
453,2020-03-31,Manga,313930.0,0,0,-14.7529,-43.9391,0.642,19813.0,13766.0
454,2020-03-31,Manhuaçu,313940.0,1,0,-20.2572,-42.028,0.69,79574.0,63209.0
455,2020-03-31,Manhumirim,313950.0,0,0,-20.3591,-41.9589,0.7,21382.0,16895.0
456,2020-03-31,Mantena,313960.0,0,0,-18.7761,-40.9874,0.675,27111.0,21053.0
457,2020-03-31,Maravilhas,313970.0,0,0,-19.5076,-44.6779,0.672,7163.0,4882.0
458,2020-03-31,Mar de Espanha,313980.0,0,0,-21.8707,-43.0062,0.684,11749.0,10538.0
459,2020-03-31,Maria da Fé,313990.0,0,0,-22.3044,-45.3773,0.7,14216.0,8281.0
460,2020-03-31,Mariana,314000.0,2,0,-20.3765,-43.413999999999994,0.742,54219.0,47999.0
461,2020-03-31,Marilac,314010.0,0,0,-18.5079,-42.0822,0.615,4219.0,3417.0
462,2020-03-31,Mário Campos,314015.0,0,0,-20.0582,-44.1883,0.7,13192.0,11929.0
463,2020-03-31,Maripá de Minas,314020.0,0,0,-21.6979,-42.9546,0.68,2788.0,2261.0
464,2020-03-31,Marliéria,314030.0,0,0,-19.7096,-42.7327,0.657,4012.0,2823.0
465,2020-03-31,Marmelópolis,314040.0,0,0,-22.447,-45.1645,0.65,2968.0,1549.0
466,2020-03-31,Martinho Campos,314050.0,0,0,-19.3306,-45.2434,0.669,12611.0,10932.0
467,2020-03-31,Martins Soares,314053.0,0,0,-20.2546,-41.8786,0.635,7173.0,2917.0
468,2020-03-31,Mata Verde,314055.0,0,0,-15.6869,-40.7366,0.581,7874.0,6387.0
469,2020-03-31,Materlândia,314060.0,0,0,-18.4699,-43.0579,0.597,4595.0,2005.0
470,2020-03-31,Mateus Leme,314070.0,0,0,-19.9794,-44.4318,0.7,27856.0,24603.0
471,2020-03-31,Matias Barbosa,314080.0,0,0,-21.869,-43.3135,0.72,13435.0,12434.0
472,2020-03-31,Matias Cardoso,314085.0,0,0,-14.8563,-43.9146,0.616,9979.0,5131.0
473,2020-03-31,Matipó,314090.0,0,0,-20.2873,-42.3401,0.631,17639.0,13766.0
474,2020-03-31,Mato Verde,314100.0,0,0,-15.3944,-42.86,0.662,12684.0,9160.0
475,2020-03-31,Matozinhos,314110.0,0,0,-19.5543,-44.0868,0.731,33955.0,32354.0
476,2020-03-31,Matutina,314120.0,0,0,-19.2179,-45.9664,0.71,3761.0,2683.0
477,2020-03-31,Medeiros,314130.0,0,0,-19.9865,-46.2181,0.711,3444.0,1934.0
478,2020-03-31,Medina,314140.0,0,0,-16.2245,-41.4728,0.624,21026.0,15048.0
479,2020-03-31,Mendes Pimentel,314150.0,0,0,-18.6631,-41.4052,0.626,6331.0,3447.0
480,2020-03-31,Mercês,314160.0,0,0,-21.1976,-43.3337,0.664,10368.0,7226.0
481,2020-03-31,Mesquita,314170.0,0,0,-19.224,-42.6079,0.66,6069.0,3805.0
482,2020-03-31,Minas Novas,314180.0,0,0,-17.2156,-42.5884,0.633,30794.0,12471.0
483,2020-03-31,Minduri,314190.0,0,0,-21.6797,-44.6051,0.66,3840.0,3365.0
484,2020-03-31,Mirabela,314200.0,0,0,-16.256,-44.1602,0.665,13042.0,9999.0
485,2020-03-31,Miradouro,314210.0,0,0,-20.8899,-42.3458,0.66,10251.0,5630.0
486,2020-03-31,Miraí,314220.0,0,0,-21.2021,-42.6122,0.68,13808.0,10323.0
487,2020-03-31,Miravânia,314225.0,0,0,-14.7348,-44.4092,0.593,4549.0,1072.0
488,2020-03-31,Moeda,314230.0,0,0,-20.3399,-44.0509,0.638,4689.0,1787.0
489,2020-03-31,Moema,314240.0,0,0,-19.8387,-45.4127,0.721,7028.0,6458.0
490,2020-03-31,Monjolos,314250.0,0,0,-18.3245,-44.118,0.65,2360.0,1402.0
491,2020-03-31,Monsenhor Paulo,314260.0,0,0,-21.7579,-45.5391,0.721,8161.0,6102.0
492,2020-03-31,Montalvânia,314270.0,0,0,-14.4197,-44.3719,0.613,15862.0,10210.0
493,2020-03-31,Monte Alegre de Minas,314280.0,0,0,-18.869,-48.881,0.674,19619.0,13210.0
494,2020-03-31,Monte Azul,314290.0,0,0,-15.1514,-42.8718,0.659,21994.0,12329.0
495,2020-03-31,Monte Belo,314300.0,0,0,-21.3271,-46.3635,0.688,13061.0,8953.0
496,2020-03-31,Monte Carmelo,314310.0,0,0,-18.7302,-47.4912,0.728,45772.0,39350.0
497,2020-03-31,Monte Formoso,314315.0,0,0,-16.8691,-41.2473,0.541,4656.0,1696.0
498,2020-03-31,Monte Santo de Minas,314320.0,0,0,-21.1873,-46.9753,0.71,21234.0,16267.0
499,2020-03-31,Montes Claros,314330.0,0,0,-16.7282,-43.8578,0.77,361915.0,338940.0
500,2020-03-31,Monte Sião,314340.0,0,0,-22.4335,-46.573,0.72,21203.0,16545.0
501,2020-03-31,Montezuma,314345.0,0,0,-15.1702,-42.4941,0.59,7464.0,3074.0
502,2020-03-31,Morada Nova de Minas,314350.0,0,0,-18.5998,-45.3584,0.696,8255.0,6396.0
503,2020-03-31,Morro da Garça,314360.0,0,0,-18.5356,-44.601000000000006,0.648,2660.0,1520.0
504,2020-03-31,Morro do Pilar,314370.0,0,0,-19.2236,-43.3795,0.597,3399.0,2581.0
505,2020-03-31,Munhoz,314380.0,0,0,-22.6092,-46.361999999999995,0.647,6257.0,3310.0
506,2020-03-31,Muriaé,314390.0,1,0,-21.13,-42.3693,0.73,100765.0,92629.0
507,2020-03-31,Mutum,314400.0,0,0,-19.8121,-41.4407,0.644,26661.0,13711.0
508,2020-03-31,Muzambinho,314410.0,0,0,-21.3692,-46.5213,0.74,20430.0,15620.0
509,2020-03-31,Nacip Raydan,314420.0,0,0,-18.4544,-42.2481,0.585,3154.0,1960.0
510,2020-03-31,Nanuque,314430.0,0,0,-17.8481,-40.3533,0.701,40834.0,36579.0
511,2020-03-31,Naque,314435.0,0,0,-19.2291,-42.3312,0.675,6341.0,5945.0
512,2020-03-31,Natalândia,314437.0,0,0,-16.5021,-46.4874,0.67,3280.0,2447.0
513,2020-03-31,Natércia,314440.0,0,0,-22.1158,-45.5123,0.693,4658.0,2721.0
514,2020-03-31,Nazareno,314450.0,0,0,-21.2168,-44.6138,0.69,7954.0,6217.0
515,2020-03-31,Nepomuceno,314460.0,0,0,-21.2324,-45.235,0.667,25733.0,19800.0
516,2020-03-31,Ninheira,314465.0,0,0,-15.3148,-41.7564,0.556,9815.0,2614.0
517,2020-03-31,Nova Belém,314467.0,0,0,-18.4925,-41.1107,0.59,3732.0,1348.0
518,2020-03-31,Nova Era,314470.0,0,0,-19.7577,-43.0333,0.71,17528.0,15386.0
519,2020-03-31,Nova Lima,314480.0,20,0,-19.9758,-43.8509,0.813,80998.0,76049.0
520,2020-03-31,Nova Módica,314490.0,0,0,-18.4417,-41.4984,0.63,3790.0,2321.0
521,2020-03-31,Nova Ponte,314500.0,0,0,-19.1461,-47.6779,0.701,12812.0,10952.0
522,2020-03-31,Nova Porteirinha,314505.0,0,0,-15.7993,-43.2941,0.64,7398.0,4065.0
523,2020-03-31,Nova Resende,314510.0,0,0,-21.1286,-46.4157,0.67,15374.0,8801.0
524,2020-03-31,Nova Serrana,314520.0,0,0,-19.8713,-44.9847,0.715,73699.0,69346.0
525,2020-03-31,Novo Cruzeiro,314530.0,0,0,-17.4654,-41.8826,0.57,30725.0,10471.0
526,2020-03-31,Novo Oriente de Minas,314535.0,0,0,-17.4089,-41.2194,0.555,10339.0,4408.0
527,2020-03-31,Novorizonte,314537.0,0,0,-16.0162,-42.4044,0.616,4963.0,1717.0
528,2020-03-31,Olaria,314540.0,0,0,-21.8598,-43.9356,0.636,1976.0,917.0
529,2020-03-31,Olhos-d'Água,314545.0,0,0,,,0.626,5267.0,2861.0
530,2020-03-31,Olímpio Noronha,314550.0,0,0,-22.0685,-45.2657,0.674,2533.0,2248.0
531,2020-03-31,Oliveira,314560.0,0,0,-20.6982,-44.82899999999999,0.7,39466.0,35099.0
532,2020-03-31,Oliveira Fortes,314570.0,0,0,-21.3401,-43.4499,0.635,2123.0,1171.0
533,2020-03-31,Onça de Pitangui,314580.0,0,0,-19.7276,-44.8058,0.66,3055.0,1517.0
534,2020-03-31,Oratórios,314585.0,0,0,-20.4298,-42.7977,0.637,4493.0,3240.0
535,2020-03-31,Orizânia,314587.0,0,0,-20.5142,-42.1991,0.562,7284.0,2221.0
536,2020-03-31,Ouro Branco,314590.0,0,0,-20.5263,-43.6962,0.764,35268.0,31547.0
537,2020-03-31,Ouro Fino,314600.0,0,0,-22.2779,-46.3716,0.722,31568.0,22455.0
538,2020-03-31,Ouro Preto,314610.0,0,0,-20.3796,-43.512,0.741,70281.0,61519.0
539,2020-03-31,Ouro Verde de Minas,314620.0,0,0,-18.0719,-41.2734,0.595,6016.0,3613.0
540,2020-03-31,Padre Carvalho,314625.0,0,0,-16.3646,-42.5088,0.599,5834.0,3462.0
541,2020-03-31,Padre Paraíso,314630.0,0,0,-17.0758,-41.4821,0.596,18849.0,11494.0
542,2020-03-31,Paineiras,314640.0,0,0,-18.8993,-45.5321,0.669,4631.0,3568.0
543,2020-03-31,Pains,314650.0,0,0,-20.3705,-45.6627,0.728,8014.0,6565.0
544,2020-03-31,Pai Pedro,314655.0,0,0,-15.5271,-43.07,0.59,5934.0,1742.0
545,2020-03-31,Paiva,314660.0,0,0,-21.2913,-43.4088,0.72,1558.0,1218.0
546,2020-03-31,Palma,314670.0,0,0,-21.3748,-42.3123,0.703,6545.0,5108.0
547,2020-03-31,Palmópolis,314675.0,0,0,-16.7364,-40.4296,0.565,6931.0,4463.0
548,2020-03-31,Papagaios,314690.0,0,0,-19.4419,-44.7468,0.67,14175.0,11821.0
549,2020-03-31,Paracatu,314700.0,0,0,-17.2252,-46.8711,0.74,84718.0,73521.0
550,2020-03-31,Pará de Minas,314710.0,0,0,-19.8534,-44.6114,0.725,84215.0,78927.0
551,2020-03-31,Paraguaçu,314720.0,0,0,-21.5465,-45.7374,0.715,20245.0,16567.0
552,2020-03-31,Paraisópolis,314730.0,0,0,-22.5539,-45.7803,0.73,19379.0,15961.0
553,2020-03-31,Paraopeba,314740.0,0,0,-19.2732,-44.4044,0.69,22563.0,19584.0
554,2020-03-31,Passabém,314750.0,0,0,-19.3509,-43.1383,0.642,1766.0,1010.0
555,2020-03-31,Passa Quatro,314760.0,0,0,-22.3871,-44.9709,0.715,15582.0,11611.0
556,2020-03-31,Passa Tempo,314770.0,0,0,-20.6539,-44.4926,0.687,8197.0,6332.0
557,2020-03-31,Passa Vinte,314780.0,0,0,,,0.648,2079.0,1295.0
558,2020-03-31,Passos,314790.0,0,0,-20.7193,-46.608999999999995,0.76,106290.0,100405.0
559,2020-03-31,Patis,314795.0,0,0,-16.0773,-44.0787,0.614,5579.0,2297.0
560,2020-03-31,Patos de Minas,314800.0,0,0,-18.5699,-46.5013,0.765,138710.0,124101.0
561,2020-03-31,Patrocínio,314810.0,1,0,-18.9379,-46.9934,0.73,82471.0,71918.0
562,2020-03-31,Patrocínio do Muriaé,314820.0,0,0,-21.1544,-42.2125,0.682,5287.0,4303.0
563,2020-03-31,Paula Cândido,314830.0,0,0,-20.8754,-42.9752,0.637,9271.0,4915.0
564,2020-03-31,Paulistas,314840.0,0,0,-18.4276,-42.8628,0.625,4918.0,2290.0
565,2020-03-31,Pavão,314850.0,0,0,-17.4267,-41.0035,0.627,8589.0,5176.0
566,2020-03-31,Peçanha,314860.0,0,0,-18.5441,-42.5583,0.627,17260.0,9035.0
567,2020-03-31,Pedra Azul,314870.0,0,0,-16.0086,-41.2909,0.627,23839.0,20912.0
568,2020-03-31,Pedra Bonita,314875.0,0,0,-20.5219,-42.3304,0.573,6673.0,1805.0
569,2020-03-31,Pedra do Anta,314880.0,0,0,-20.5968,-42.7123,0.624,3365.0,2191.0
570,2020-03-31,Pedra do Indaiá,314890.0,0,0,-20.2563,-45.2107,0.708,3875.0,2052.0
571,2020-03-31,Pedra Dourada,314900.0,0,0,-20.8266,-42.1515,0.655,2191.0,1297.0
572,2020-03-31,Pedralva,314910.0,0,0,-22.2386,-45.4654,0.675,11467.0,5504.0
573,2020-03-31,Pedras de Maria da Cruz,314915.0,0,0,-15.6032,-44.391000000000005,0.614,10315.0,6323.0
574,2020-03-31,Pedrinópolis,314920.0,0,0,-19.2241,-47.4579,0.73,3490.0,2911.0
575,2020-03-31,Pedro Leopoldo,314930.0,0,0,-19.6308,-44.0383,0.757,58740.0,55232.0
576,2020-03-31,Pedro Teixeira,314940.0,0,0,-21.7076,-43.743,0.637,1785.0,965.0
577,2020-03-31,Pequeri,314950.0,0,0,-21.8341,-43.1145,0.69,3165.0,2908.0
578,2020-03-31,Pequi,314960.0,0,0,-19.6284,-44.6604,0.674,4076.0,2949.0
579,2020-03-31,Perdigão,314970.0,0,0,-19.9411,-45.078,0.703,8912.0,7062.0
580,2020-03-31,Perdizes,314980.0,0,0,-19.3434,-47.2963,0.723,14404.0,9784.0
581,2020-03-31,Perdões,314990.0,0,0,-21.0932,-45.0896,0.74,20087.0,17714.0
582,2020-03-31,Periquito,314995.0,0,0,-19.1573,-42.2333,0.65,7036.0,5289.0
583,2020-03-31,Pescador,315000.0,0,0,-18.357,-41.6006,0.66,4128.0,3195.0
584,2020-03-31,Piau,315010.0,0,0,-21.5096,-43.313,0.629,2841.0,1669.0
585,2020-03-31,Piedade de Caratinga,315015.0,0,0,-19.7593,-42.0756,0.612,7110.0,4592.0
586,2020-03-31,Piedade de Ponte Nova,315020.0,0,0,-20.2438,-42.7379,0.639,4062.0,3156.0
587,2020-03-31,Piedade do Rio Grande,315030.0,0,0,-21.469,-44.1938,0.68,4709.0,3423.0
588,2020-03-31,Piedade dos Gerais,315040.0,0,0,-20.4715,-44.2243,0.626,4640.0,2077.0
589,2020-03-31,Pimenta,315050.0,0,0,-20.4827,-45.8049,0.69,8236.0,6879.0
590,2020-03-31,Pingo d'Água,315053.0,0,0,,,0.619,4420.0,4029.0
591,2020-03-31,Pintópolis,315057.0,0,0,-16.0572,-45.1402,0.594,7211.0,2532.0
592,2020-03-31,Piracema,315060.0,0,0,-20.5089,-44.4783,0.65,6406.0,3003.0
593,2020-03-31,Pirajuba,315070.0,0,0,-19.9092,-48.7027,0.723,4656.0,4097.0
594,2020-03-31,Piranga,315080.0,0,0,-20.6834,-43.2967,0.6,17232.0,5899.0
595,2020-03-31,Piranguçu,315090.0,0,0,-22.5249,-45.4945,0.685,5217.0,1721.0
596,2020-03-31,Piranguinho,315100.0,0,0,-22.395,-45.5324,0.72,8016.0,4762.0
597,2020-03-31,Pirapetinga,315110.0,0,0,-21.6554,-42.3434,0.71,10364.0,9089.0
598,2020-03-31,Pirapora,315120.0,0,0,-17.3392,-44.934,0.731,53368.0,51887.0
599,2020-03-31,Piraúba,315130.0,0,0,-21.2825,-43.0172,0.684,10862.0,8768.0
600,2020-03-31,Pitangui,315140.0,0,0,-19.6741,-44.8964,0.725,25311.0,22436.0
601,2020-03-31,Piumhi,315150.0,0,0,-20.4762,-45.9589,0.737,31883.0,28288.0
602,2020-03-31,Planura,315160.0,0,0,-20.1376,-48.7,0.71,10384.0,9326.0
603,2020-03-31,Poço Fundo,315170.0,0,0,-21.78,-45.9658,0.691,15959.0,9212.0
604,2020-03-31,Poços de Caldas,315180.0,2,0,-21.78,-46.5692,0.779,152435.0,148198.0
605,2020-03-31,Pocrane,315190.0,0,0,-19.6208,-41.6334,0.626,8986.0,5374.0
606,2020-03-31,Pompéu,315200.0,0,0,-19.2257,-45.0141,0.69,29105.0,25352.0
607,2020-03-31,Ponte Nova,315210.0,0,0,-20.4111,-42.8978,0.72,57390.0,51046.0
608,2020-03-31,Ponto Chique,315213.0,0,0,-16.6282,-45.0588,0.606,3966.0,2577.0
609,2020-03-31,Ponto dos Volantes,315217.0,0,0,-16.7473,-41.5025,0.595,11345.0,4025.0
610,2020-03-31,Porteirinha,315220.0,0,0,-15.7404,-43.0281,0.65,37627.0,19222.0
611,2020-03-31,Porto Firme,315230.0,0,0,-20.6642,-43.0834,0.634,10417.0,4811.0
612,2020-03-31,Poté,315240.0,0,0,-17.8077,-41.786,0.624,15667.0,9299.0
613,2020-03-31,Pouso Alegre,315250.0,0,0,-22.2266,-45.9389,0.774,130615.0,118760.0
614,2020-03-31,Pouso Alto,315260.0,0,0,-22.1964,-44.9748,0.71,6213.0,3605.0
615,2020-03-31,Prados,315270.0,0,0,-21.0597,-44.0778,0.69,8391.0,5872.0
616,2020-03-31,Prata,315280.0,0,0,-19.3086,-48.9276,0.695,25802.0,19257.0
617,2020-03-31,Pratápolis,315290.0,0,0,-20.7411,-46.8624,0.73,8807.0,7739.0
618,2020-03-31,Pratinha,315300.0,0,0,-19.739,-46.3755,0.721,3265.0,1758.0
619,2020-03-31,Presidente Bernardes,315310.0,0,0,-20.7656,-43.1895,0.632,5537.0,1626.0
620,2020-03-31,Presidente Juscelino,315320.0,0,0,-18.6401,-44.06,0.614,3908.0,1846.0
621,2020-03-31,Presidente Kubitschek,315330.0,0,0,-18.6193,-43.5628,0.595,2959.0,2012.0
622,2020-03-31,Presidente Olegário,315340.0,0,0,-18.4096,-46.4165,0.701,18577.0,13036.0
623,2020-03-31,Alto Jequitibá,315350.0,0,0,-20.4208,-41.967,0.66,8318.0,4719.0
624,2020-03-31,Prudente de Morais,315360.0,0,0,-19.4742,-44.1591,0.69,9573.0,9120.0
625,2020-03-31,Quartel Geral,315370.0,0,0,-19.2703,-45.5569,0.68,3303.0,2749.0
626,2020-03-31,Queluzito,315380.0,0,0,-20.7416,-43.8851,0.682,1861.0,847.0
627,2020-03-31,Raposos,315390.0,0,0,-19.9636,-43.8079,0.73,15342.0,14988.0
628,2020-03-31,Raul Soares,315400.0,0,0,-20.1061,-42.4502,0.655,23818.0,15377.0
629,2020-03-31,Recreio,315410.0,0,0,-21.5289,-42.4676,0.69,10299.0,9048.0
630,2020-03-31,Reduto,315415.0,0,0,-20.2401,-41.9848,0.629,6569.0,3648.0
631,2020-03-31,Resende Costa,315420.0,0,0,-20.9171,-44.2407,0.685,10913.0,8672.0
632,2020-03-31,Resplendor,315430.0,0,0,-19.3194,-41.2462,0.67,17089.0,12969.0
633,2020-03-31,Ressaquinha,315440.0,0,0,-21.0642,-43.7598,0.68,4711.0,2979.0
634,2020-03-31,Riachinho,315445.0,0,0,-16.2258,-45.9888,0.632,8007.0,4429.0
635,2020-03-31,Riacho dos Machados,315450.0,0,0,-16.0091,-43.0488,0.627,9360.0,4497.0
636,2020-03-31,Ribeirão das Neves,315460.0,0,0,-19.7621,-44.0844,0.684,296317.0,272404.0
637,2020-03-31,Ribeirão Vermelho,315470.0,0,0,-21.1879,-45.0637,0.737,3826.0,3532.0
638,2020-03-31,Rio Acima,315480.0,0,0,-20.0876,-43.7878,0.67,9090.0,8453.0
639,2020-03-31,Rio Casca,315490.0,0,0,-20.2285,-42.6462,0.65,14201.0,11171.0
640,2020-03-31,Rio Doce,315500.0,0,0,-20.2412,-42.8995,0.664,2465.0,1650.0
641,2020-03-31,Rio do Prado,315510.0,0,0,-16.6056,-40.5714,0.605,5217.0,2717.0
642,2020-03-31,Rio Espera,315520.0,0,0,-20.855,-43.4721,0.602,6070.0,2377.0
643,2020-03-31,Rio Manso,315530.0,0,0,-20.2666,-44.3069,0.648,5276.0,2802.0
644,2020-03-31,Rio Novo,315540.0,0,0,-21.4649,-43.1168,0.71,8712.0,7490.0
645,2020-03-31,Rio Paranaíba,315550.0,0,0,-19.1861,-46.2455,0.71,11885.0,7876.0
646,2020-03-31,Rio Pardo de Minas,315560.0,0,0,-15.616,-42.5405,0.624,29099.0,11636.0
647,2020-03-31,Rio Piracicaba,315570.0,0,0,-19.9284,-43.1829,0.685,14149.0,11229.0
648,2020-03-31,Rio Pomba,315580.0,0,0,-21.2712,-43.1696,0.71,17110.0,14384.0
649,2020-03-31,Rio Preto,315590.0,0,0,-22.0861,-43.8293,0.679,5292.0,4408.0
650,2020-03-31,Rio Vermelho,315600.0,0,0,-18.2922,-43.0018,0.56,13645.0,5443.0
651,2020-03-31,Ritápolis,315610.0,0,0,-21.0276,-44.3204,0.653,4925.0,3407.0
652,2020-03-31,Rochedo de Minas,315620.0,0,0,-21.6284,-43.0165,0.684,2116.0,1914.0
653,2020-03-31,Rodeiro,315630.0,0,0,-21.2035,-42.8586,0.67,6867.0,5506.0
654,2020-03-31,Romaria,315640.0,0,0,-18.8838,-47.5782,0.708,3596.0,2707.0
655,2020-03-31,Rosário da Limeira,315645.0,0,0,-20.9812,-42.5112,0.662,4247.0,2283.0
656,2020-03-31,Rubelita,315650.0,0,0,-16.4053,-42.261,0.58,7772.0,2514.0
657,2020-03-31,Rubim,315660.0,0,0,-16.3775,-40.5397,0.609,9919.0,7678.0
658,2020-03-31,Sabará,315670.0,3,0,-19.884,-43.8263,0.731,126269.0,119262.0
659,2020-03-31,Sabinópolis,315680.0,0,0,-18.6653,-43.0752,0.638,15704.0,10099.0
660,2020-03-31,Sacramento,315690.0,0,0,-19.8622,-47.4508,0.732,23896.0,19131.0
661,2020-03-31,Salinas,315700.0,0,0,-16.1753,-42.2964,0.679,39178.0,30607.0
662,2020-03-31,Salto da Divisa,315710.0,0,0,-16.0063,-39.9391,0.608,6859.0,5743.0
663,2020-03-31,Santa Bárbara,315720.0,0,0,-19.9604,-43.4101,0.71,27876.0,25790.0
664,2020-03-31,Santa Bárbara do Leste,315725.0,0,0,-19.9753,-42.1457,0.613,7682.0,3959.0
665,2020-03-31,Santa Bárbara do Monte Verde,315727.0,0,0,-21.9592,-43.7027,0.606,2788.0,1607.0
666,2020-03-31,Santa Bárbara do Tugúrio,315730.0,0,0,-21.2431,-43.5607,0.637,4570.0,2187.0
667,2020-03-31,Santa Cruz de Minas,315733.0,0,0,-21.1241,-44.2202,0.706,7865.0,7861.0
668,2020-03-31,Santa Cruz de Salinas,315737.0,0,0,-16.0967,-41.7418,0.58,4397.0,1150.0
669,2020-03-31,Santa Cruz do Escalvado,315740.0,0,0,-20.2372,-42.8169,0.625,4992.0,1728.0
670,2020-03-31,Santa Efigênia de Minas,315750.0,0,0,-18.8235,-42.4388,0.607,4600.0,3044.0
671,2020-03-31,Santa Fé de Minas,315760.0,0,0,-16.6859,-45.4102,0.615,3968.0,2262.0
672,2020-03-31,Santa Helena de Minas,315765.0,0,0,-16.9707,-40.6727,0.57,6055.0,3760.0
673,2020-03-31,Santa Juliana,315770.0,0,0,-19.3108,-47.5322,0.706,11337.0,9757.0
674,2020-03-31,Santa Luzia,315780.0,1,0,-19.7548,-43.8497,0.715,202942.0,191977.0
675,2020-03-31,Santa Margarida,315790.0,0,0,-20.3839,-42.2519,0.61,15011.0,7612.0
676,2020-03-31,Santa Maria de Itabira,315800.0,0,0,-19.4431,-43.1064,0.648,10552.0,6278.0
677,2020-03-31,Santa Maria do Salto,315810.0,0,0,-16.2479,-40.1512,0.613,5284.0,3739.0
678,2020-03-31,Santa Maria do Suaçuí,315820.0,0,0,-18.1896,-42.4139,0.64,14395.0,10538.0
679,2020-03-31,Santana da Vargem,315830.0,0,0,-21.2449,-45.5005,0.698,7231.0,5277.0
680,2020-03-31,Santana de Cataguases,315840.0,0,0,-21.2893,-42.5524,0.69,3622.0,2913.0
681,2020-03-31,Santana de Pirapama,315850.0,0,0,-18.9962,-44.0409,0.628,8009.0,3297.0
682,2020-03-31,Santana do Deserto,315860.0,0,0,-21.9512,-43.1583,0.65,3860.0,1404.0
683,2020-03-31,Santana do Garambéu,315870.0,0,0,-21.5983,-44.105,0.667,2234.0,1548.0
684,2020-03-31,Santana do Jacaré,315880.0,0,0,-20.9007,-45.1285,0.647,4607.0,4382.0
685,2020-03-31,Santana do Manhuaçu,315890.0,0,0,-20.1031,-41.9278,0.621,8582.0,4133.0
686,2020-03-31,Santana do Paraíso,315895.0,0,0,-19.3661,-42.5446,0.685,27265.0,25947.0
687,2020-03-31,Santana do Riacho,315900.0,0,0,-19.1662,-43.722,0.665,4023.0,2260.0
688,2020-03-31,Santana dos Montes,315910.0,0,0,-20.7868,-43.6949,0.647,3822.0,2285.0
689,2020-03-31,Santa Rita de Caldas,315920.0,0,0,-22.0292,-46.3385,0.69,9027.0,5532.0
690,2020-03-31,Santa Rita de Jacutinga,315930.0,0,0,-22.1474,-44.0977,0.682,4993.0,3736.0
691,2020-03-31,Santa Rita de Minas,315935.0,0,0,-19.875999999999998,-42.1363,0.613,6547.0,4746.0
692,2020-03-31,Santa Rita de Ibitipoca,315940.0,0,0,-21.5658,-43.9163,0.63,3583.0,2232.0
693,2020-03-31,Santa Rita do Itueto,315950.0,0,0,-19.3576,-41.3821,0.607,5697.0,2566.0
694,2020-03-31,Santa Rita do Sapucaí,315960.0,0,0,-22.2461,-45.7034,0.721,37754.0,31718.0
695,2020-03-31,Santa Rosa da Serra,315970.0,0,0,-19.5186,-45.9611,0.705,3224.0,1956.0
696,2020-03-31,Santa Vitória,315980.0,0,0,-18.8414,-50.1208,0.71,18138.0,14334.0
697,2020-03-31,Santo Antônio do Amparo,315990.0,0,0,-20.943,-44.9176,0.672,17345.0,15137.0
698,2020-03-31,Santo Antônio do Aventureiro,316000.0,0,0,-21.7606,-42.8115,0.67,3538.0,2374.0
699,2020-03-31,Santo Antônio do Grama,316010.0,0,0,-20.3185,-42.6047,0.633,4085.0,3365.0
700,2020-03-31,Santo Antônio do Itambé,316020.0,0,0,-18.4609,-43.3006,0.56,4135.0,1230.0
701,2020-03-31,Santo Antônio do Jacinto,316030.0,0,0,-16.5332,-40.1817,0.574,11775.0,6341.0
702,2020-03-31,Santo Antônio do Monte,316040.0,0,0,-20.085,-45.2947,0.72,25975.0,21302.0
703,2020-03-31,Santo Antônio do Retiro,316045.0,0,0,-15.3393,-42.6171,0.57,6955.0,1590.0
704,2020-03-31,Santo Antônio do Rio Abaixo,316050.0,0,0,-19.2374,-43.2604,0.669,1777.0,887.0
705,2020-03-31,Santo Hipólito,316060.0,0,0,-18.2968,-44.2229,0.657,3238.0,2233.0
706,2020-03-31,Santos Dumont,316070.0,0,0,-21.4634,-43.5499,0.741,46284.0,41193.0
707,2020-03-31,São Bento Abade,316080.0,0,0,-21.5839,-45.0699,0.672,4577.0,4236.0
708,2020-03-31,São Brás do Suaçuí,316090.0,0,0,-20.6242,-43.9515,0.664,3513.0,3128.0
709,2020-03-31,São Domingos das Dores,316095.0,0,0,-19.5246,-42.0106,0.638,5408.0,2573.0
710,2020-03-31,São Domingos do Prata,316100.0,0,0,-19.8678,-42.971000000000004,0.69,17357.0,10434.0
711,2020-03-31,São Félix de Minas,316105.0,0,0,-18.5959,-41.4889,0.62,3382.0,2082.0
712,2020-03-31,São Francisco,316110.0,0,0,-15.9514,-44.8593,0.638,53828.0,34060.0
713,2020-03-31,São Francisco de Paula,316120.0,0,0,-20.7036,-44.9838,0.66,6483.0,4622.0
714,2020-03-31,São Francisco de Sales,316130.0,0,0,-19.8611,-49.7727,0.688,5776.0,4293.0
715,2020-03-31,São Francisco do Glória,316140.0,0,0,-20.7923,-42.2673,0.66,5178.0,3129.0
716,2020-03-31,São Geraldo,316150.0,0,0,-20.9252,-42.8364,0.65,10263.0,7226.0
717,2020-03-31,São Geraldo da Piedade,316160.0,0,0,-18.8411,-42.2867,0.6,4389.0,1048.0
718,2020-03-31,São Geraldo do Baixio,316165.0,0,0,-18.9097,-41.363,0.63,3486.0,2438.0
719,2020-03-31,São Gonçalo do Abaeté,316170.0,0,0,-18.3315,-45.8265,0.67,6264.0,4161.0
720,2020-03-31,São Gonçalo do Pará,316180.0,0,0,-19.9822,-44.8593,0.69,10398.0,7940.0
721,2020-03-31,São Gonçalo do Rio Abaixo,316190.0,0,0,-19.8221,-43.36600000000001,0.667,9777.0,4649.0
722,2020-03-31,São Gonçalo do Sapucaí,316200.0,0,0,-21.8932,-45.5893,0.715,23906.0,19637.0
723,2020-03-31,São Gotardo,316210.0,0,0,-19.3087,-46.0465,0.736,31819.0,29284.0
724,2020-03-31,São João Batista do Glória,316220.0,0,0,-20.635,-46.508,0.72,6887.0,5579.0
725,2020-03-31,São João da Lagoa,316225.0,0,0,-16.8455,-44.3507,0.634,4656.0,2388.0
726,2020-03-31,São João da Mata,316230.0,0,0,-21.928,-45.9297,0.653,2731.0,1706.0
727,2020-03-31,São João da Ponte,316240.0,0,0,-15.9271,-44.0096,0.569,25358.0,8616.0
728,2020-03-31,São João das Missões,316245.0,0,0,-14.8859,-44.0922,0.529,11715.0,2431.0
729,2020-03-31,São João del Rei,316250.0,2,0,-21.1311,-44.2526,0.758,84469.0,79654.0
730,2020-03-31,São João do Manhuaçu,316255.0,0,0,-20.3933,-42.1533,0.65,10245.0,4178.0
731,2020-03-31,São João do Manteninha,316257.0,0,0,-18.723,-41.1628,0.64,5188.0,2904.0
732,2020-03-31,São João do Oriente,316260.0,0,0,-19.3384,-42.1575,0.648,7874.0,6319.0
733,2020-03-31,São João do Pacuí,316265.0,0,0,-16.5373,-44.5134,0.625,4060.0,1921.0
734,2020-03-31,São João do Paraíso,316270.0,0,0,-15.3168,-42.0213,0.615,22319.0,10219.0
735,2020-03-31,São João Evangelista,316280.0,0,0,-18.548,-42.7655,0.638,15553.0,10057.0
736,2020-03-31,São João Nepomuceno,316290.0,0,0,-21.5381,-43.0069,0.708,25057.0,23687.0
737,2020-03-31,São Joaquim de Bicas,316292.0,0,0,-20.048,-44.2749,0.662,25537.0,21770.0
738,2020-03-31,São José da Barra,316294.0,0,0,-20.7178,-46.313,0.74,6778.0,4882.0
739,2020-03-31,São José da Lapa,316295.0,0,0,-19.6971,-43.9586,0.73,19799.0,17889.0
740,2020-03-31,São José da Safira,316300.0,0,0,-18.3243,-42.1431,0.583,4075.0,2944.0
741,2020-03-31,São José da Varginha,316310.0,0,0,-19.7006,-44.556000000000004,0.7,4198.0,2369.0
742,2020-03-31,São José do Alegre,316320.0,0,0,-22.3243,-45.5258,0.72,3996.0,2894.0
743,2020-03-31,São José do Divino,316330.0,0,0,-18.4793,-41.3907,0.66,3834.0,2686.0
744,2020-03-31,São José do Goiabal,316340.0,0,0,-19.9214,-42.7035,0.67,5636.0,3685.0
745,2020-03-31,São José do Jacuri,316350.0,0,0,-18.281,-42.6729,0.57,6553.0,2000.0
746,2020-03-31,São José do Mantimento,316360.0,0,0,-20.0058,-41.7486,0.657,2592.0,1437.0
747,2020-03-31,São Lourenço,316370.0,0,0,-22.1166,-45.0506,0.759,41657.0,40784.0
748,2020-03-31,São Miguel do Anta,316380.0,0,0,-20.7067,-42.7174,0.644,6760.0,3738.0
749,2020-03-31,São Pedro da União,316390.0,0,0,-21.131,-46.6123,0.674,5040.0,2755.0
750,2020-03-31,São Pedro dos Ferros,316400.0,0,0,-20.1732,-42.5251,0.659,8356.0,6732.0
751,2020-03-31,São Pedro do Suaçuí,316410.0,0,0,-18.3609,-42.5981,0.622,5570.0,2302.0
752,2020-03-31,São Romão,316420.0,0,0,-16.3641,-45.0749,0.64,10276.0,6413.0
753,2020-03-31,São Roque de Minas,316430.0,0,0,-20.249000000000002,-46.3639,0.672,6686.0,4188.0
754,2020-03-31,São Sebastião da Bela Vista,316440.0,0,0,-22.1583,-45.7546,0.69,4948.0,2776.0
755,2020-03-31,São Sebastião da Vargem Alegre,316443.0,0,0,-19.7477,-43.3679,0.66,2798.0,1602.0
756,2020-03-31,São Sebastião do Anta,316447.0,0,0,-19.5064,-41.985,0.607,5739.0,4205.0
757,2020-03-31,São Sebastião do Maranhão,316450.0,0,0,-18.0873,-42.5659,0.581,10647.0,3237.0
758,2020-03-31,São Sebastião do Oeste,316460.0,0,0,-20.2758,-45.0063,0.626,5805.0,2927.0
759,2020-03-31,São Sebastião do Paraíso,316470.0,0,0,-20.9167,-46.9837,0.722,64980.0,59711.0
760,2020-03-31,São Sebastião do Rio Preto,316480.0,0,0,-19.2959,-43.1757,0.632,1613.0,873.0
761,2020-03-31,São Sebastião do Rio Verde,316490.0,0,0,-22.2183,-44.9761,0.68,2110.0,1321.0
762,2020-03-31,São Tiago,316500.0,0,0,-20.9075,-44.5098,0.662,10561.0,8436.0
763,2020-03-31,São Tomás de Aquino,316510.0,0,0,-20.7791,-47.0962,0.7,7093.0,5486.0
764,2020-03-31,São Tomé das Letras,316520.0,0,0,,,,,
765,2020-03-31,São Vicente de Minas,316530.0,0,0,-21.7042,-44.4431,0.715,7008.0,5927.0
766,2020-03-31,Sapucaí-Mirim,316540.0,0,0,-22.7409,-45.738,0.68,6241.0,3783.0
767,2020-03-31,Sardoá,316550.0,0,0,-18.7828,-42.3629,0.636,5594.0,1979.0
768,2020-03-31,Sarzedo,316553.0,0,0,-20.0367,-44.1446,0.73,25814.0,25478.0
769,2020-03-31,Setubinha,316555.0,0,0,-17.6002,-42.1587,0.542,10885.0,2790.0
770,2020-03-31,Sem-Peixe,316556.0,0,0,-20.1008,-42.8483,0.654,2847.0,1506.0
771,2020-03-31,Senador Amaral,316557.0,0,0,-22.5869,-46.1763,0.66,5219.0,3098.0
772,2020-03-31,Senador Cortes,316560.0,0,0,-21.7986,-42.9424,0.674,1988.0,1511.0
773,2020-03-31,Senador Firmino,316570.0,0,0,-20.9158,-43.0904,0.644,7230.0,4642.0
774,2020-03-31,Senador José Bento,316580.0,0,0,-22.1633,-46.1792,0.684,1868.0,682.0
775,2020-03-31,Senador Modestino Gonçalves,316590.0,0,0,-17.9465,-43.2172,0.62,4574.0,1786.0
776,2020-03-31,Senhora de Oliveira,316600.0,0,0,-20.7972,-43.3394,0.631,5683.0,3241.0
777,2020-03-31,Senhora do Porto,316610.0,0,0,-18.8909,-43.0799,0.565,3497.0,1580.0
778,2020-03-31,Senhora dos Remédios,316620.0,0,0,-21.0351,-43.5812,0.626,10196.0,3421.0
779,2020-03-31,Sericita,316630.0,0,0,-20.4748,-42.4828,0.56,7128.0,3717.0
780,2020-03-31,Seritinga,316640.0,0,0,-21.9134,-44.518,0.66,1789.0,1482.0
781,2020-03-31,Serra Azul de Minas,316650.0,0,0,-18.3602,-43.1675,0.557,4220.0,1706.0
782,2020-03-31,Serra da Saudade,316660.0,0,0,-19.4447,-45.795,0.677,815.0,524.0
783,2020-03-31,Serra dos Aimorés,316670.0,0,0,-17.7872,-40.2453,0.65,8412.0,6761.0
784,2020-03-31,Serra do Salitre,316680.0,1,0,-19.1083,-46.6961,0.696,10549.0,7728.0
785,2020-03-31,Serrania,316690.0,0,0,-21.5441,-46.0417,0.677,7542.0,6537.0
786,2020-03-31,Serranópolis de Minas,316695.0,0,0,-15.8176,-42.8732,0.633,4425.0,1725.0
787,2020-03-31,Serranos,316700.0,0,0,-21.8857,-44.5125,0.643,1995.0,1536.0
788,2020-03-31,Serro,316710.0,0,0,-18.5991,-43.3744,0.66,20835.0,12808.0
789,2020-03-31,Sete Lagoas,316720.0,2,0,-19.4569,-44.2413,0.76,214152.0,208184.0
790,2020-03-31,Silveirânia,316730.0,0,0,-21.1615,-43.2128,0.652,2192.0,1428.0
791,2020-03-31,Silvianópolis,316740.0,0,0,-22.0274,-45.8385,0.7,6027.0,3494.0
792,2020-03-31,Simão Pereira,316750.0,0,0,-21.964000000000002,-43.3088,0.638,2537.0,1496.0
793,2020-03-31,Simonésia,316760.0,0,0,-20.1341,-42.0091,0.632,18298.0,7072.0
794,2020-03-31,Sobrália,316770.0,0,0,-19.2345,-42.0998,0.631,5830.0,4128.0
795,2020-03-31,Soledade de Minas,316780.0,0,0,-22.0554,-45.0464,0.7,5676.0,3761.0
796,2020-03-31,Tabuleiro,316790.0,0,0,-21.3632,-43.2381,0.68,4079.0,2697.0
797,2020-03-31,Taiobeiras,316800.0,0,0,-15.8106,-42.2259,0.67,30917.0,24995.0
798,2020-03-31,Taparuba,316805.0,0,0,-19.7621,-41.608000000000004,0.645,3137.0,1405.0
799,2020-03-31,Tapira,316810.0,0,0,-19.9166,-46.8264,0.71,4112.0,2404.0
800,2020-03-31,Tapiraí,316820.0,0,0,-19.8936,-46.0221,0.667,1873.0,1084.0
801,2020-03-31,Taquaraçu de Minas,316830.0,0,0,-19.6652,-43.6922,0.65,3794.0,1755.0
802,2020-03-31,Tarumirim,316840.0,0,0,-19.2835,-42.0097,0.633,14293.0,7950.0
803,2020-03-31,Teixeiras,316850.0,0,0,-20.6561,-42.8564,0.675,11355.0,7574.0
804,2020-03-31,Teófilo Otoni,316860.0,0,0,-17.8595,-41.5087,0.701,134745.0,112361.0
805,2020-03-31,Timóteo,316870.0,1,0,-19.5811,-42.6471,0.77,81243.0,78539.0
806,2020-03-31,Tiradentes,316880.0,0,0,-21.1102,-44.1744,0.74,6961.0,5403.0
807,2020-03-31,Tiros,316890.0,0,0,-19.0037,-45.9626,0.68,6906.0,4815.0
808,2020-03-31,Tocantins,316900.0,0,0,-21.1774,-43.0127,0.688,15823.0,12844.0
809,2020-03-31,Tocos do Moji,316905.0,0,0,-22.3698,-46.0971,0.696,3950.0,1017.0
810,2020-03-31,Toledo,316910.0,0,0,-22.7421,-46.3728,0.66,5764.0,2153.0
811,2020-03-31,Tombos,316920.0,0,0,-20.9086,-42.0228,0.718,9537.0,7556.0
812,2020-03-31,Três Corações,316930.0,0,0,-21.6921,-45.2511,0.74,72765.0,65609.0
813,2020-03-31,Três Marias,316935.0,0,0,-18.2048,-45.2473,0.752,28318.0,26773.0
814,2020-03-31,Três Pontas,316940.0,0,0,-21.3694,-45.5109,0.731,53860.0,45472.0
815,2020-03-31,Tumiritinga,316950.0,0,0,-18.9844,-41.6527,0.626,6293.0,4316.0
816,2020-03-31,Tupaciguara,316960.0,0,0,-18.5866,-48.6985,0.72,24188.0,21636.0
817,2020-03-31,Turmalina,316970.0,0,0,-17.2828,-42.7285,0.682,18055.0,12862.0
818,2020-03-31,Turvolândia,316980.0,0,0,-21.8733,-45.7859,0.696,4658.0,2860.0
819,2020-03-31,Ubá,316990.0,0,0,-21.1204,-42.9359,0.72,101519.0,96248.0
820,2020-03-31,Ubaí,317000.0,0,0,-16.2885,-44.7783,0.609,11681.0,5648.0
821,2020-03-31,Ubaporanga,317005.0,0,0,-19.6351,-42.1059,0.614,12040.0,6419.0
822,2020-03-31,Uberaba,317010.0,3,0,-19.7472,-47.9381,0.772,295988.0,285743.0
823,2020-03-31,Uberlândia,317020.0,10,0,-18.9141,-48.2749,0.789,604013.0,580561.0
824,2020-03-31,Umburatiba,317030.0,0,0,-17.2548,-40.5779,0.638,2705.0,1554.0
825,2020-03-31,Unaí,317040.0,1,0,-16.3592,-46.9022,0.736,77565.0,59265.0
826,2020-03-31,União de Minas,317043.0,0,0,-19.5299,-50.338,0.672,4418.0,2651.0
827,2020-03-31,Uruana de Minas,317047.0,0,0,-16.0634,-46.2443,0.664,3235.0,1809.0
828,2020-03-31,Urucânia,317050.0,0,0,-20.3521,-42.736999999999995,0.633,10291.0,7928.0
829,2020-03-31,Urucuia,317052.0,0,0,-16.1244,-45.7352,0.619,13604.0,6152.0
830,2020-03-31,Vargem Alegre,317057.0,0,0,-19.5988,-42.2949,0.631,6461.0,5256.0
831,2020-03-31,Vargem Bonita,317060.0,0,0,-20.3333,-46.3688,0.696,2163.0,1142.0
832,2020-03-31,Vargem Grande do Rio Pardo,317065.0,0,0,-15.3987,-42.3085,0.634,4733.0,2421.0
833,2020-03-31,Varginha,317070.0,0,0,-21.5556,-45.4364,0.778,123081.0,118734.0
834,2020-03-31,Varjão de Minas,317075.0,0,0,-18.3741,-46.0313,0.711,6054.0,4998.0
835,2020-03-31,Várzea da Palma,317080.0,0,0,-17.5944,-44.7226,0.67,35809.0,31216.0
836,2020-03-31,Varzelândia,317090.0,0,0,-15.6992,-44.0278,0.594,19116.0,8877.0
837,2020-03-31,Vazante,317100.0,0,0,-17.9827,-46.9088,0.742,19723.0,16094.0
838,2020-03-31,Verdelândia,317103.0,0,0,-15.5845,-43.6121,0.584,8346.0,4698.0
839,2020-03-31,Veredinha,317107.0,0,0,-17.3974,-42.7307,0.632,5549.0,3761.0
840,2020-03-31,Veríssimo,317110.0,0,0,-19.6657,-48.3118,0.667,3483.0,1969.0
841,2020-03-31,Vermelho Novo,317115.0,0,0,-20.0406,-42.2688,0.612,4689.0,1849.0
842,2020-03-31,Vespasiano,317120.0,0,0,-19.6883,-43.9239,0.688,104527.0,84080.0
843,2020-03-31,Viçosa,317130.0,0,0,-20.7559,-42.8742,0.775,72220.0,67078.0
844,2020-03-31,Vieiras,317140.0,0,0,-20.866999999999997,-42.2401,0.67,3731.0,1851.0
845,2020-03-31,Mathias Lobato,317150.0,0,0,-18.59,-41.9166,0.612,3370.0,3060.0
846,2020-03-31,Virgem da Lapa,317160.0,0,0,-16.807000000000002,-42.3431,0.61,13619.0,6837.0
847,2020-03-31,Virgínia,317170.0,0,0,-22.3264,-45.0965,0.65,8623.0,3902.0
848,2020-03-31,Virginópolis,317180.0,0,0,-18.8154,-42.7015,0.675,10572.0,6147.0
849,2020-03-31,Virgolândia,317190.0,0,0,-18.4738,-42.3067,0.62,5658.0,3392.0
850,2020-03-31,Visconde do Rio Branco,317200.0,0,0,-21.0127,-42.8361,0.71,37942.0,32204.0
851,2020-03-31,Volta Grande,317210.0,0,0,-21.7671,-42.5375,0.669,5070.0,3787.0
852,2020-03-31,Wenceslau Braz,317220.0,0,0,-22.5368,-45.3626,0.68,2553.0,1264.0
